StructureID,StructureName,Longitude,Latitude
ANN001,Allain Creek Bridge,-65.517874,44.738435
ANN002,Anderson Brook Bridge,-65.39583,44.777457
ANN003,Bloody Creek Bridge,-65.310188,44.82242
ANN005,Bruce Multiplate,-65.341896,44.80871
ANN006,Chute Bridge,-65.600715,44.683771
ANN007,Clementsport #1 Bridge,-65.604185,44.660682
ANN008,Foster Brook Bridge,-65.246174,44.855196
ANN009,Morton Hollow Bridge,-65.055732,44.951854
ANN010,Round Hill Bridge,-65.404293,44.772939
ANN011,Sawmill Creek Bridge,-65.465927,44.753652
ANN012,Shearer Bridge,-65.218654,44.868428
ANN013,Tupperville Bridge,-65.360367,44.803006
ANN014,Victoria Bridge,-65.679781,44.615752
ANN015,Vroom Brook Bridge,-65.091574,44.931454
ANN016,Walker Bridge,-64.964614,44.979752
ANN017,Wiswall Bridge,-64.989981,44.965902
ANN018,Lambs Brook Bridge,-65.462479,44.665845
ANN019,Maitland Bridge,-65.200869,44.446297
ANN023,Mason Meadow Bridge,-64.838394,44.629682
ANN024,Shannon Bridge,-65.002288,44.722819
ANN025,Anderson Bridge,-65.570711,44.794644
ANN027,Armstrong Bridge,-64.97702,44.919685
ANN028,Bear River Bridge,-65.639769,44.575466
ANN029,Barteaux Bridge,-65.142337,44.852763
ANN031,Bishop Brook Bridge,-65.41354,44.771534
ANN032,Both Culvert Bridge,-65.310448,44.839801
ANN033,Black River Bridge,-64.948888,44.948023
ANN034,Brickton Bridge,-65.121884,44.906429
ANN035,Bayard Bridge,-65.029455,44.949098
ANN036,Chipman Bridge,-65.081914,44.906046
ANN037,Chute Bridge,-65.333371,44.907146
ANN038,Claybank Bridge,-65.204118,44.977999
ANN039,Clementsvale Bridge,-65.561008,44.618903
ANN040,Crocker Bridge,-64.985113,44.951932
ANN041,Daniels Bridge,-65.25317,44.84617
ANN042,Delancey Bridge,-65.098953,44.908384
ANN043,Delong Bridge,-65.077892,44.464941
ANN044,Dunn Bridge,-65.560885,44.577182
ANN045,Eager Bridge,-65.038381,44.930159
ANN046,East Guinea Bridge,-65.59101,44.656317
ANN047,Elbow Bridge,-65.204751,44.7586
ANN048,Eri Bridge,-64.955478,44.932283
ANN049,Falkland Bridge,-64.893176,44.661953
ANN050,Forty Seven Bridge,-64.8594,44.693639
ANN051,Foster Bridge,-65.152697,45.005355
ANN052,Franks #1 Bridge,-65.135476,44.889575
ANN053,Generals Bridge,-65.488485,44.71898
ANN054,Gibsons Bridge,-65.319461,44.712443
ANN055,Halfway Bridge,-64.96809,44.593899
ANN057,Sam Harris Bridge,-65.603221,44.559202
ANN058,Hastings Bridge,-64.865525,44.64471
ANN059,Phinney Cove Bridge,-65.395997,44.884214
ANN060,Inlet Bridge,-64.880586,44.626378
ANN061,Kelly Bridge,-65.059122,44.722024
ANN062,Lawrencetown Bridge,-65.158021,44.88079
ANN064,McCauls Bridge,-65.632223,44.765528
ANN065,McEwan Bridge,-65.624391,44.56399
ANN068,Melvern Square Bridge,-64.992902,44.985368
ANN071,Mink Brook Bridge,-65.514206,44.546829
ANN072,Morse Brook Bridge,-65.142931,44.93164
ANN073,Morses Bridge,-65.205856,44.863919
ANN074,Mosher Bridge,-65.114903,45.004177
ANN075,Mosher Brook Bridge,-65.199994,44.974546
ANN077,Nictaux Falls Bridge,-65.030533,44.908945
ANN078,Paradise Bridge,-65.206408,44.867482
ANN079,Parker's Cove Bridge,-65.537964,44.812137
ANN080,Parker Meadow Bridge,-65.05506,44.878348
ANN081,Phinney Bridge,-65.001497,44.953379
ANN082,Phinney Mills Bridge,-65.000442,44.952016
ANN083,Poole Brook Bridge,-65.303601,44.916272
ANN084,Powerlot Bridge,-65.584474,44.656505
ANN085,Rice's Mill Bridge,-65.636146,44.56847
ANN086,Rogers First Bridge,-65.633125,44.566353
ANN087,Rogers Second Bridge,-65.631705,44.566506
ANN088,Sabeans Brook Multiplate Bridge,-65.277095,44.943663
ANN089,Sixty Bridge,-64.827338,44.706325
ANN091,Spinney (Upper) Bridge,-64.949104,44.924335
ANN092,St. Croix Bridge,-65.280653,44.929461
ANN093,Mill #2 Bridge,-65.494252,44.727062
ANN094,Rice Bridge,-65.643534,44.594388
ANN095,Torbrook Centre Bridge,-64.977842,44.914173
ANN096,Whitman Bridge,-64.989008,44.907652
ANN097,Upper Black River Bridge,-64.991615,44.879596
ANN098,Smith Culvert Bridge,-65.441246,44.864815
ANN100,Wildcat Bridge,-64.973641,44.58916
ANN102,Wilkins Bridge,-65.263763,44.947218
ANN104,Wright Bridge,-65.36844,44.71375
ANN106,Mill Lake #1 Bridge,-65.573881,44.529115
ANN107,Mill Lake #2 Bridge,-65.574484,44.527219
ANN109,Deep Brook Bridge,-65.647368,44.640405
ANN110,Kennedy Bridge,-65.599389,44.645885
ANN112,Cornwallis Resevoir Bridge,-65.557483,44.613152
ANN113,Quarry Bridge,-65.563081,44.630205
ANN118,Clemensport #3 Bridge,-65.604799,44.660463
ANN120,Ryerson West Bridge,-65.563012,44.704378
ANN121,Ryerson East Bridge,-65.5623,44.704729
ANN124,Dixon Bridge,-65.625959,44.713341
ANN125,Thorne Cove Bridge,-65.677426,44.701789
ANN126,McGarth Bridge,-65.748998,44.69933
ANN127,Hains Bridge,-65.754562,44.678352
ANN132,Steve Robinson Bridge,-65.488362,44.83323
ANN133,Lake Brook Bridge,-65.483138,44.834444
ANN134,Hogan Bridge,-65.45728,44.856961
ANN136,Glebe #1 Bridge,-65.411173,44.879663
ANN137,Gaskill Bridge,-65.354578,44.899787
ANN140,Inglewood Bridge,-65.294201,44.850337
ANN141,Beaconsfield Bridge,-65.36052,44.834954
ANN142,Saunders Brook Bridge,-65.259486,44.851747
ANN143,Leonard Bridge,-65.200416,44.870713
ANN144,Oaks Hollow Bridge,-65.147916,44.890969
ANN145,McEwan Bridge,-65.130775,44.906677
ANN146,Burbidge Bridge,-65.1102,44.916867
ANN148,Parker Brook Bridge,-65.035636,44.954926
ANN149,Allison Marshall Bridge,-65.070184,44.973177
ANN150,McNeily Bridge,-65.074621,45.023652
ANN151,Stronach Bridge,-65.029555,45.050659
ANN153,Phinney Bridge,-65.157607,44.874746
ANN154,Carleton Bridge,-65.164795,44.873922
ANN156,Button Brook Bridge,-65.274731,44.833923
ANN161,Canal Bridge,-65.498019,44.705889
ANN163,Eight Mile Brook Bridge,-65.382898,44.708191
ANN165,Beeler Mill Creek Bridge,-65.234841,44.748127
ANN166,Milbury Bridge,-65.192802,44.755895
ANN167,Durling Mill Bridge,-65.143348,44.704956
ANN169,Veinot Bridge,-65.041897,44.748178
ANN170,Waterloo Bridge,-64.973186,44.713251
ANN171,Ten Mile River Bridge,-65.382075,44.654754
ANN172,McLellan Lake Bridge,-65.398159,44.571549
ANN173,Pike Lake Bridge,-65.387007,44.561563
ANN174,Lake Monroe Bridge,-65.349092,44.531655
ANN175,Thibeau Bog Bridge,-65.286581,44.516589
ANN177,Minard Lake Inlet Bridge,-65.171089,44.436331
ANN180,Beaver Brook Bridge,-65.496545,44.564619
ANN181,East Moose River Bridge,-65.543192,44.640264
ANN182,Saunders Brook Bridge,-65.508606,44.678962
ANN183,Deep Brook West  Bridge,-65.627709,44.627893
ANN184,Allain Creek Crossing Bridge,-65.49483,44.692001
ANN185,Dodge Road U/P Bridge on 101,-65.004563,44.972625
ANN186,Stronach Mtn Rd U/P Bridge on 101,-64.980072,44.979023
ANN187,Brooklyn Street U/P Bridge on 101,-65.09117,44.949451
ANN188,Annapolis River Bridge,-65.265843,44.844177
ANN189,Waldec Line Rd O/P Bridge on 101,-65.633359,44.628308
ANN190,Clementsport Rd U/P Bridge on 101,-65.565638,44.633379
ANN191,Victoria Road U/P Bridge on 101,-65.055331,44.963049
ANN192,Elliott Road O/P Bridge on 101,-65.17324,44.901651
ANN193,Gates MTN Rd U/P Bridge on 101,-65.078378,44.959109
ANN194,Allain Creek Canal Bridge,-65.498743,44.689744
ANN195,Purdy Road O/P Bridge on 101,-65.65165,44.628316
ANN196,Mary Jane Riley U/P Bridge on 101,-65.61126,44.626845
ANN197,Shaw Road O/P Bridge on 101,-65.578576,44.631507
ANN198,Powerlot Road U/P Bridge on 101,-65.547711,44.638445
ANN199,Clementsvale Road O/P Bridge on 101,-65.51637,44.664453
ANN200,Mt. Hanley Rd O/P Bridge on 101,-65.131149,44.920302
ANN201,Leonard Road O/P Bridge on 101,-65.210422,44.884677
ANN202,Messenger Road O/P Bridge on 101,-65.245498,44.873628
ANN203,Trunk #1 O/P Bridge on 101,-65.268664,44.847127
ANN204,Route 201 O/P Bridge on 101,-65.263819,44.841902
ANN205,Morse Road U/P Bridge on 101,-65.286519,44.825404
ANN206,Bear River East O/P Bridge on 101,-65.674393,44.623651
ANN207,DAR O/P Bridge on 101,-65.267376,44.845757
ANN208,Springfield Bridge,-64.860209,44.631007
ANN209,Bank Bridge,-65.638875,44.576237
ANN210,Troop Bridge,-65.500709,44.762957
ANN211,Walker Brook Bridge,-65.356901,44.816551
ANN212,Bridgetown West Interchange  Bridge,-65.297785,44.820781
ANN213,West Dalhousie O/P Bridge,-65.466409,44.715688
ANN214,Lequille O/P  Interchange Bridge,-65.486221,44.701123
ANN215,Evans Brook West Bridge,-65.420273,44.733935
ANN216,Spurr Road U/P Bridge,-65.38495,44.744037
ANN217,Evans Brook East Bridge,-65.406971,44.738599
ANN218,Outlet Bridge,-64.87139,44.605902
ANN219,Mason Brook Bridge,-64.831353,44.633662
ANN220,Campbell Bridge,-64.859891,44.692703
ANN221,Crossburn Brook Bridge,-64.823032,44.743624
ANN222,Hampton Wharf Bridge,-65.349419,44.906482
ANN223,Dave Sabean's Bridge,-65.268716,44.946533
ANN224,Port Lorne Wharf Bridge,-65.264996,44.947993
ANN225,Corbett Bridge,-65.264455,44.947673
ANN226,Schoolhouse #1 Bridge,-65.257473,44.940956
ANN227,Clay Hill Bridge,-65.222029,44.955095
ANN228,Healy Bridge,-65.213283,44.965561
ANN229,Hayes Bridge,-65.182519,44.990851
ANN230,Hines Bridge,-65.183117,44.990207
ANN231,Elliott Bridge,-65.155571,44.998822
ANN232,Neaves Hollow Bridge,-65.246268,44.769262
ANN233,Saunders Road Muliplate Bridge,-65.267805,44.866568
ANN234,Phelans Farm Xing M/P Bridge,-65.251743,44.871667
ANN235,Balcom Road Multiplate Bridge,-65.231236,44.87813
ANN236,Beals Farm Xing   M/P Bridge,-65.189106,44.893941
ANN237,Fitch Road Multiplate Bridge,-65.157106,44.90845
ANN238,Durling Bridge,-65.155007,44.898615
ANN239,McEwan Brook Bridge,-65.132564,44.919591
ANN240,Schoolhouse #2 Bridge,-65.148124,44.937684
ANN241,Slokum Bridge,-65.147586,44.936431
ANN242,Hall Bridge,-65.142982,44.884568
ANN243,Franks #2 Bridge,-65.146927,44.881915
ANN244,John Banks Bridge,-65.134031,44.851967
ANN245,Morse Bridge,-65.09463,44.947859
ANN246,Fred Baker Bridge,-65.001665,44.993078
ANN247,Hebb Farm Crossing Bridge,-65.063002,44.962005
ANN248,Morton Brook Multiplate Bridge,-65.056651,44.962865
ANN249,Ruggles Road Multiplate Bridge,-65.037093,44.965818
ANN250,Pheasant Preserve Multiplate Bridge,-65.024778,44.945131
ANN251,Canal Bridge,-65.031172,44.887271
ANN252,Alpena Bridge,-65.065228,44.853353
ANN253,Trout Lake #1 Bridge,-65.075416,44.789321
ANN254,Stanley Gates Bridge,-64.991785,44.990865
ANN255,Spurr Bridge,-64.994994,44.978967
ANN256,Vault Road Multiplate Bridge,-64.991075,44.975612
ANN257,Spinney Lower Bridge,-64.952176,44.927682
ANN258,Newcombe Bridge,-64.977221,44.876044
ANN259,Peter Morse Bridge,-64.971139,44.834531
ANN260,Canal Service Road Bridge,-65.50217,44.687748
ANN261,Kelly Lake Bridge,-65.016207,44.678471
ANN262,Big River Bridge,-65.018841,44.670411
ANN263,Wildcat #2 Bridge,-65.014171,44.614285
ANN264,Bogart Bridge,-65.690775,44.729943
ANN267,Purdy Service Road Multiplate Bridge,-65.663504,44.62737
ANN268,Lent Multiplate Bridge,-65.61574,44.626954
ANN269,Fraser Road Multiplate Bridge,-65.53337,44.645837
ANN270,Moose River #1 Bridge,-65.543662,44.599301
ANN272,Wilkins Bridge,-65.052372,45.019697
ANN273,Bloody Creek Bridge,-65.304898,44.817864
ANN274,Margaret Rafuse Bridge,-65.162093,45.002145
ANN275,Falls Bridge,-65.03173,45.010712
ANN276,Earl Palmer Bridge,-65.014807,45.00551
ANN277,Robar Meadow Bridge,-64.970257,44.591714
ANN278,Allen Meadow Bridge,-64.952565,44.602463
ANN279,Trout Lake #2 Bridge,-65.079787,44.787659
ANN280,Button Brook Multiplate Bridge,-65.265792,44.832285
ANN281,Francis Farm Crossing Bridge,-65.272836,44.829439
ANN282,Moore Multiplate Bridge,-65.314353,44.813977
ANN283,Newton - Mersey Multiplate Bridge,-65.3248,44.806466
ANN284,Hooper Brook Multiplate Bridge,-65.328194,44.801972
ANN285,Wallace Bruce #2 Bridge,-65.330895,44.798406
ANN286,Whitman Multiplate Bridge,-65.338047,44.783395
ANN287,Tupper Brook Multiplate Bridge,-65.339937,44.777864
ANN288,Max Bent Multiplate Bridge,-65.345297,44.762419
ANN289,Bowater Mersey     #1 Bridge,-65.406002,44.738815
ANN290,Messenger Multiplate Bridge,-65.426537,44.730991
ANN291,Barteaux Multiplate Bridge,-65.440852,44.724628
ANN292,Mailman Multiplate Bridge,-65.456701,44.719089
ANN293,Potter Lake Bridge,-65.528957,44.601547
ANN294,Litch's Creek Bridge,-65.606141,44.782054
ANN295,Phinney Mountain Bridge,-65.391386,44.878221
ANN296,Harris Brook Bridge,-65.609484,44.592292
ANN297,McColough Bridge,-65.026145,44.970206
ANN298,MacInnis Bridge,-65.150134,45.003781
ANN299,McNeil Bridge,-64.978143,44.992355
ANN301,Moose River Branch #2 Bridge,-65.537941,44.599092
ANN302,Upper Clements Theme Park Bridge,-65.562625,44.704566
ANN303,Morton Service Road Bridge,-65.056971,44.962211
ANN306,Frank Fales Bridge,-65.034938,44.955731
ANN311,Wotton Brook Culvert,-65.025661,44.968208
ANN312,Lauren's Culvert,-65.093762,44.947045
ANN313,Oak Hollow Brook,-65.158634,44.907964
ANN314,Cynthia & Adam's Culverts,-65.197923,44.889633
ANN315,Little Grey Culvert,-65.223472,44.880578
ANN317,Belliesle Culvert,-65.38698,44.809001
ANN318,Virginia's Culvert's,-65.535189,44.632279
ANN321,Warner Brook Bridge,-65.127037,45.000487
ANN323,Paw Print Culvert,-64.9948,44.97467
ANN325,Isobel Culvert,-65.15323,44.90973
ANN326,Munro's Brook Culvert,-65.244893,44.873817
ANN327,Mike's Culvert,-65.2513,44.871806
ANN328,South Side Culverts,-65.251148,44.871224
ANN329,North Side Culverts,-65.25136,44.872164
ANN330,Long Box Culvert,-65.244308,44.871703
ANN331,Durling Mill Brook Overflow,-65.142907,44.697893
ANN334,Sarah's Bridge,-65.315539,44.910659
ANN335,Kniffen Brook Bridge,-65.650752,44.600823
ANN336,Negro Brook Bridge,-65.591411,44.55762
ANN343,Thorne Brook Bridge,-65.678318,44.699814
ANN345,Longley Mountain Bridge,-65.383732,44.812637
ANN353,Callaghan Meadows Bridge,-65.063906,44.867225
ANN361,Trunk 1 Civic No 14373,-65.005529,44.958231
ANN363,Big Brook Bridge,-65.178328,44.837954
ANN364,Potter Bridge,-65.513052,44.583816
ANN131,Leonard Bridge,-65.509847,44.824143
ANT274,CORSTENS ACCESS TUNNEL,-61.978745,45.609272
ANT001,BLACK BROOK BRIDGE,-61.61228,45.607991
ANT002,AVON RIVER PANEL BRIDGE,-61.80513,45.587987
ANT003,JAMES RIVER TRUSS,-62.105685,45.580536
ANT005,MacAMIS BRIDGE,-61.980348,45.620685
ANT006,MONASTERY BROOK BRIDGE #1,-61.623759,45.611381
ANT009,HAVRE BOUCHER CULVERT,-61.518467,45.674474
ANT010,PURL BROOK BRIDGE,-62.039233,45.563086
ANT011,SALT SPRINGS BROOK BRIDGE,-62.018936,45.5836
ANT013,WEST RIVER BRIDGE #1,-62.000139,45.601236
ANT014,ADDINGTON FORKS TRUSS,-62.081969,45.560341
ANT015,ANGUS MAC PHERSON CULVERT,-61.83952,45.551038
ANT016,BEACHES BRIDGE,-61.73265,45.626239
ANT017,BEAVER MOUNTAIN CULVERT,-62.137422,45.565372
ANT018,BAYFIELD BRIDGE,-61.738257,45.628032
ANT019,BEAULY #1 BRIDGE,-61.817723,45.525909
ANT020,BEAVER MEADOWS BRIDGE,-62.100628,45.553262
ANT021,DUNMORE BROOK BRIDGE,-61.928312,45.531676
ANT026,CAMPBELL BRIDGE,-62.111282,45.761821
ANT027,CANAL BRIDGE,-61.983776,45.624647
ANT029,CALEDONIA MILLS TRUSS,-61.79725,45.486173
ANT030,CARRIGAN MILLS BRIDGE,-62.087596,45.442739
ANT032,CHURCH STREET BRIDGE,-61.988467,45.621023
ANT033,CLYDESDALE BRIDGE,-62.04517,45.638379
ANT035,OGDEN BROOK BRIDGE,-61.898184,45.726684
ANT036,CROFTS CULVERT,-61.849688,45.508935
ANT037,UPPER SOUTH RIVER BRIDGE,-61.939731,45.470623
ANT038,DENOON BRIDGE,-62.020374,45.645511
ANT039,ARISAIG BROOK CULVERT,-62.171503,45.752665
ANT040,DOCTORS BROOK CULVERT,-62.122676,45.779177
ANT041,ELMS BRIDGE,-61.618975,45.589776
ANT042,FORBES (HARTSHORN BROOK) TRUSS,-62.130677,45.559147
ANT043,FRASERS MILL CULVERT,-61.937119,45.492708
ANT045,GUS MCLELLAN BRIDGE,-62.064622,45.606832
ANT046,OLD ROAD BRIDGE,-61.961755,45.414054
ANT048,JIMTOWN BRIDGE,-61.910628,45.710439
ANT049,JOSEPH MAC DONALD BRIDGE,-61.993369,45.797364
ANT050,CAPE JACK BRIDGE,-61.582762,45.658524
ANT051,KILN BRIDGE,-62.078625,45.455145
ANT052,NORTH LAKE STREAM BRIDGE,-61.918195,45.780394
ANT053,LOCH KATRINE,-61.937401,45.430116
ANT055,MALIGNANT COVE BRIDGE,-62.080509,45.784396
ANT056,GLENROY CULVERT,-61.871282,45.539136
ANT057,MEADOW GREEN BROOK BRIDGE #1,-61.813293,45.551018
ANT058,MEADOW GREEN BROOK BRIDGE #2,-61.852414,45.558193
ANT061,MILL ROAD BRIDGE,-62.098955,45.568283
ANT062,SOUTH SALTSPRINGS BRIDGE,-61.970948,45.537925
ANT063,MONASTERY BROOK BRIDGE #2,-61.631118,45.605739
ANT065,MORIARTY CULVERT,-61.979027,45.720025
ANT066,SYLVAN VALLEY BRIDGE,-62.017151,45.634763
ANT068,MacDONALD BRIDGE (SOUTH RIVER),-61.908022,45.551556
ANT069,ALEX MCDONALD PANEL BRIDGE,-62.091894,45.561955
ANT070,FRANK SLOAN,-61.767748,45.504709
ANT071,MacDONALD MILLS TRUSS,-61.927544,45.527152
ANT072,ST. ANDREWS TRUSS,-61.90398,45.559462
ANT073,MCGILLIVARY,-62.062778,45.765562
ANT075,MacISAAC BRIDGE #1,-62.042559,45.738223
ANT077,MacNAUGHTON CULVERT,-61.936323,45.416775
ANT078,POLSON BROOK BRIDGE #1,-61.929884,45.447193
ANT079,MacPHEE CROSSING BRIDGE,-61.934467,45.445366
ANT080,NORTH RIVER BRIDGE,-61.933711,45.662401
ANT081,OHIO CROSS ROADS TRUSS,-62.052758,45.478114
ANT083,PETER CARLETON BRIDGE,-62.156851,45.740094
ANT084,PINKIETOWN BRIDGE,-62.074176,45.527671
ANT085,SOUTH SIDE HARBOUR BROOK BRIDGE,-61.891212,45.63727
ANT087,SCHOOL HOUSE BRIDGE,-61.981341,45.406701
ANT088,SCOTTS BRIDGE,-62.039045,45.700191
ANT089,BLACK AVON BRIDGE,-61.78757,45.54232
ANT090,SOMERS ROAD CULVERT,-62.028701,45.610819
ANT091,WEST LAKE CAUSEWAY BRIDGE,-61.922575,45.766058
ANT092,UPPER SOUTH RIVER CULVERT #2,-61.937553,45.470235
ANT094,ST JOSEPH LAKE BRIDGE,-62.083848,45.54044
ANT095,HEAD LAKE BRIDGE,-62.01421,45.463768
ANT096,TAYLORS CULVERT,-61.842076,45.625649
ANT097,TIERNEY,-61.958436,45.708851
ANT099,MONASTERY DAM BRIDGE,-61.634696,45.601655
ANT100,WALLS PANEL BRIDGE,-61.650586,45.575784
ANT102,DAGGER BROOK CULVERT,-61.815475,45.59981
ANT103,WILLIAM BRAY BRIDGE,-61.907612,45.450496
ANT105,POLSON BROOK BRIDGE #2,-61.880468,45.451934
ANT106,RIGHTS RIVER BRIDGE,-61.993093,45.628463
ANT108,HARVE BOUCHE BROOK,-61.539526,45.679427
ANT109,104 O/P ON BEAVER MEADOW ROAD,-62.129178,45.566898
ANT110,FISH HATCHERY BRIDGE,-61.938441,45.494897
ANT112,SCOTTSMAN BRIDGE,-62.008076,45.477683
ANT113,GLEN ALPINE BROOK BRIDGE,-62.008608,45.478517
ANT116,OHIO IRON BRIDGE,-62.071575,45.519732
ANT118,EAST HARVE BOUCHER O/P ON HIGHWAY 104,-61.47292,45.675957
ANT119,PELLERINE RD U/P ON 104,-61.523097,45.674634
ANT121,FRANKVILLE RD U/P ON 104,-61.538545,45.676912
ANT122,LINWOOD R/R U/P ON 104,-61.565229,45.648176
ANT123,LINWOOD U/P ON 104,-61.582307,45.635802
ANT124,TRACADIE LAKE U/P ON 4,-61.592647,45.629534
ANT126,CAPE POND BRIDGE,-61.564259,45.681805
ANT127,AFTON RIVER CULVERT,-61.730866,45.596051
ANT128,EAST TRACADIE O/P ON104,-61.61329,45.619663
ANT129,TRACADIE HARBOUR BRIDGE,-61.621267,45.616145
ANT130,TRACADIE R/R U/P ON 104,-61.625029,45.614905
ANT131,TRACADIE HARBOUR U/P ON 104,-61.627678,45.614051
ANT132,MacGILLIVRAY BROOK BRIDGE,-61.92815,45.762842
ANT133,MATTIE BRIDGE,-61.61013,45.604639
ANT134,WRIGHTS RIVER BROOK BRIDGE #1,-61.991174,45.634365
ANT135,WRIGHTS RIVER BROOK BRIDGE #2,-61.993217,45.637649
ANT136,MEADOW BROOK BRIDGE,-61.675442,45.591004
ANT137,MacNABBS BRIDGE,-62.032612,45.414957
ANT138,GORMAN RD O/P ON 104,-61.711483,45.599253
ANT139,BAYFIELD INDIAN RESERVATION BRIDGE,-61.734144,45.603596
ANT142,LOWER SOUTH RIVER BRIDGE,-61.914067,45.600323
ANT143,PITCHERS FARM BROOK BRIDGE,-62.016884,45.57227
ANT144,BLACK AVON RIVER BRIDGE,-61.766329,45.51051
ANT145,POMQUET RIVER BRIDGE,-61.843195,45.571881
ANT146,GASPEREAU LAKE BRIDGE,-62.050539,45.550976
ANT147,WEST RIVER ROAD BRIDGE,-62.067307,45.57672
ANT148,DUNS BEACH BRIDGE,-61.869189,45.680598
ANT149,MacPHERSON STREAM BRIDGE,-61.922423,45.516347
ANT150,JAMES RIVER BRIDGE,-62.105182,45.57759
ANT152,DUNMORE BRIDGE,-61.931207,45.53854
ANT153,PINEVALE BRIDGE,-61.98138,45.52253
ANT154,GILLIS LAKE BROOK BRIDGE,-61.977409,45.525309
ANT155,ALDER RIVER BRIDGE,-61.732346,45.484892
ANT157,CAMERONS LAKE BRIDGE,-62.125573,45.549321
ANT158,BEAVER RIVER BRIDGE,-62.13294,45.541659
ANT159,BLACK RIVER BROOK BRIDGE,-61.76256,45.503787
ANT161,CAMERON BROOK BRIDGE,-62.133321,45.54478
ANT162,CAMPBELLS BROOK BRIDGE # 1,-61.837353,45.472887
ANT163,HARBOUR CENTRE CULVERT,-61.915345,45.688304
ANT164,CHISHOLM BRIDGE,-61.86952,45.533645
ANT165,CAMPBELLS BROOK BRIDGE #2,-61.838261,45.466367
ANT166,CLOVERVILLE BROOK BRIDGE,-62.004477,45.673704
ANT167,WEST BROOK BRIDGE,-61.672973,45.622899
ANT168,OHIO BROOK BRIDGE,-62.058312,45.486122
ANT169,BRIERLY BROOK BRIDGE,-62.073859,45.604761
ANT170,LEO MACDONALDS BRIDGE,-62.067189,45.608242
ANT174,OLD PINEVALE BRIDGE #2,-61.944803,45.496013
ANT175,OLD PINEVALE BRIDGE #3,-61.958366,45.496411
ANT177,CUNNINGHAM BRIDGE,-61.98247,45.607642
ANT179,WEST RIVER BRIDGE #2,-61.978109,45.61382
ANT180,HEATHERTON BRIDGE,-61.806359,45.59027
ANT181,ALDER BROOK BRIDGE,-62.012543,45.693416
ANT182,MacISAACS BROOK BRIDGE,-62.059762,45.471609
ANT183,PHILIP CHISHOLMS BRIDGE,-61.938538,45.666062
ANT184,BROWNS MOUNTAIN BRIDGE,-62.167075,45.624401
ANT185,PLEASANT VALLEY BRIDGE,-62.071828,45.686119
ANT186,OLD MARYVALE ROAD BRIDGE,-62.064013,45.769577
ANT187,MACKENZIE'S,-61.914233,45.708248
ANT188,MacGILLIVARY BRIDGE,-61.956183,45.776456
ANT189,MacDONALDS BRIDGE #1,-62.167694,45.748859
ANT190,MacDONALDS BRIDGE #2,-62.167301,45.747362
ANT192,STEWARTS BRIDGE #1,-62.018713,45.472974
ANT193,WEST LOCHABER BRIDGE,-62.025118,45.441457
ANT194,MILL BROOK BRIDGE,-62.042754,45.393604
ANT195,CAMERONS BRIDGE,-62.011255,45.453156
ANT196,AMBROSE CAMERONS BRIDGE,-62.00963,45.564969
ANT197,MacNEILS BRIDGE,-62.009522,45.537255
ANT198,BEAVER MOUNTAIN ROAD BRIDGE,-62.137485,45.565102
ANT201,BENOITS BRIDGE,-61.83397,45.647884
ANT202,MacINTOSH BRIDGE,-61.915648,45.599184
ANT203,SPRINGFIELD BROOK BRIDGE,-61.909199,45.525487
ANT204,VOSMANS CULVERT,-61.908489,45.534369
ANT206,COLIN CHISHOLM BROOK CULVERT,-61.577221,45.639396
ANT207,TRACADIE RIVER CULVERT,-61.571169,45.643684
ANT208,MacASKILLS BROOK CULVERT,-61.45899,45.669065
ANT209,ARCHIES POND CULVERT,-61.444292,45.652617
ANT210,EAST HAVRE BOUCHER CULVERT,-61.517914,45.673588
ANT211,COPPER LAKE BROOK BRIDGE,-61.989756,45.403107
ANT212,LOCHABER CHURCH CULVERT,-62.011505,45.455464
ANT214,SOUTH LOCHABER BROOK CULVERT,-62.033681,45.40421
ANT215,WEST LINWOOD CULVERT,-61.578593,45.641927
ANT216,LITTLE TRACADIE RIVER CULVERT,-61.574052,45.651008
ANT217,MILLERS BROOK CULVERT,-61.570949,45.652171
ANT218,WEST HAVRE BOUCHER BROOK CULVERT,-61.549443,45.664869
ANT219,MacASKILL CULVERT,-61.462341,45.667861
ANT220,BONVIE BRIDGE,-61.673185,45.62369
ANT221,CARLS LAKE BROOK BRIDGE,-61.667704,45.575026
ANT222,FRANKVILLE BROOK BRIDGE,-61.541418,45.65959
ANT223,GRANTS BRIDGE,-61.586608,45.576128
ANT224,JIM MATTIE BRIDGE,-61.597622,45.590998
ANT225,CONNERS MOUNTAIN BRIDGE,-62.189703,45.699323
ANT226,MacARRAS BROOK BRIDGE,-62.19666,45.702133
ANT227,DUNMAGLASS BRIDGE,-62.206478,45.699671
ANT228,MacDONALDS BRIDGE #3,-62.16543,45.739497
ANT230,SUMMERSIDE CULVERT,-61.787926,45.594565
ANT231,ROSS BRIDGE,-62.032167,45.725063
ANT232,DURRANTS BRIDGE,-61.842455,45.620366
ANT233,LOWER SOUTH RIVER BROOK CULVERT,-61.905679,45.594906
ANT234,MacISAAC BRIDGE #2,-61.915351,45.53868
ANT235,JACK MACGILLIVARYS BRIDGE,-61.958836,45.618365
ANT236,MacPHERSONS BRIDGE,-61.942845,45.497643
ANT237,HORRAHANS BRIDGE,-61.942802,45.470828
ANT238,van den HEUVALS BRIDGE,-61.939416,45.453897
ANT239,HURLBERT BROOK,-62.016186,45.444228
ANT240,LOCHABER LAKE STREAM CULVERT,-62.01205,45.453279
ANT241,LOCHABER BROOK CULVERT,-62.013503,45.449862
ANT242,MacDOUGALLS BRIDGE,-61.843875,45.497823
ANT243,WEST POMQUET RIVER BRIDGE,-61.874878,45.507583
ANT244,WHIDDENS BRIDGE,-61.994921,45.621184
ANT245,BEAULY #2 BRIDGE,-61.818075,45.526159
ANT246,GEORGEVILLE BROOK BRIDGE,-62.020123,45.821174
ANT247,HARDYS BRIDGE,-61.996641,45.427592
ANT248,KNOYDART BROOK,-62.199751,45.706111
ANT249,MONASTERY CULVERT,-61.606682,45.600804
ANT250,ANNABELLES CULVERT,-61.901579,45.544353
ANT251,BROWNS BRIDGE,-62.028661,45.434378
ANT252,TURNBULLS BRIDGE,-62.04143,45.401123
ANT253,WEST AFTON RIVER BRIDGE,-61.722452,45.554929
ANT255,BEECH HILL ROAD O/P ON 104 EB,-61.968114,45.609823
ANT256,BEECH HILL ROAD O/P ON 104 WB,-61.968329,45.610123
ANT257,ADDINGTON FORKS U/P ON 104,-62.023822,45.600901
ANT258,WEST RIVER BRIDGE ON 104 EB,-61.980753,45.608778
ANT259,WEST RIVER BRIDGE ON 104 WB,-61.980926,45.609071
ANT260,TRUNK 7 HWY OP ON 104 EB,-61.999249,45.611451
ANT261,TRUNK 7 HWY OP ON 104 WB,-61.99924,45.611753
ANT262,CHURCH ST EXTENSION TUNNEL,-61.983449,45.608731
ANT265,BERNARD DECOSTES BRIDGE,-61.551496,45.594313
ANT266,MacDONALDS BRIDGE (TRACADIE RIVER),-61.56801,45.587744
ANT267,DESMOND BRIDGE,-61.579226,45.574518
ANT269,UPPER BIG TRACADIE CULVERT,-61.588703,45.577956
ANT273,HWY  104 CULVERT,-62.018959,45.603468
ANT275,Paq'tnkek First Nation Underpass,-61.735214,45.595671
ANT276,Lower Afton River,-61.733916,45.601854
ANT279,104 Antigonish Bypass West,-62.050272,45.596847
ANT280,104 Antigonish Bypass East,-61.954169,45.606266
CB001,SEVEN MILE (WIDENING) BRIDGE,-60.280426,46.069823
CB002,RORY BRAECHT BRIDGE,-60.529249,45.913961
CB003,BALLS CREEK BRIDGE,-60.310258,46.1498
CB004,BIG POND BRIDGE,-60.252078,46.249494
CB005,CAMPBELLS CREEK BRIDGE,-60.296638,46.149248
CB006,FYFES MILL BRIDGE,-60.382994,46.276619
CB007,LEITCHES CREEK CROSSING BRIDGE,-60.309327,46.167906
CB008,LEITCHES CREEK  RR O/P ON 305,-60.309661,46.171011
CB009,LITTLE BRAS D'OR BRIDGE,-60.294732,46.252135
CB010,SYDNEY RIVER 0N 305,-60.226899,46.113478
CB011,ALBERT BRIDGE,-60.059514,46.021749
CB012,CATALONE RIVER #1 BRIDGE,-59.995605,45.988651
CB013,SIX MILE BROOK CULVERT,-59.964296,45.952224
CB014,STILLWATER CULVERT,-59.969159,45.960208
CB015,ARNOLDS BROOK BRIDGE,-60.187111,46.217416
CB016,RIVER RYAN BRIDGE,-60.080283,46.215903
CB017,BARACHOIS HARBOUR BRIDGE,-60.43716,46.142994
CB018,BEAVER COVE BRIDGE,-60.558139,46.067471
CB019,BELFRY LAKE BRIDGE,-60.218225,45.794484
CB020,BENACADIE BRIDGE,-60.722739,45.946784
CB021,CATALONE RIVER #2 BRIDGE,-60.051942,45.979004
CB022,BLACK BROOK BRIDGE,-59.908635,46.105926
CB023,BLACKETTS LAKE BRIDGE,-60.28901,46.07578
CB025,CAMPBELL #1 BRIDGE,-60.320775,45.908582
CB026,CAMPBELL #2 BRIDGE,-60.296672,46.150657
CB027,CATALONE LAKE TRUSS,-59.937363,46.009068
CB028,MORRISON BROOK #1 CULVERT,-60.305214,46.115226
CB029,EWEN MacDONALD BRIDGE,-60.200581,45.978082
CB030,GASPEREAUX BRIDGE,-60.326124,45.919177
CB031,GEORGES RIVER BRIDGE,-60.342851,46.205149
CB032,GLACE BAY LAKE BRIDGE,-59.948006,46.160771
CB033,GLENGARRY TRUSS,-60.513175,45.912924
CB034,GOOSE POND BRIDGE,-59.832611,45.957441
CB035,HOMEVILLE TRUSS,-59.887992,46.084127
CB036,INDIAN BROOK BRIDGE,-60.602613,45.947862
CB037,IRISH BROOK #1 BRIDGE,-60.17495,45.857809
CB038,JAMES A. GILLIS BRIDGE,-60.277291,45.844787
CB039,JAMIESON BRIDGE,-60.088867,46.025454
CB040,JEWELS (LORRAINE) TRUSS,-59.942451,45.931693
CB041,JOE MacKINNON BRIDGE,-60.323764,46.022074
CB042,JOHN JOE GILLIS BRIDGE,-60.382677,46.02615
CB043,KELVIN BRIDGE,-60.311445,45.864286
CB044,LAKE UIST BRIDGE,-60.558582,45.811163
CB045,LOCH LOMOND BRIDGE,-60.527787,45.851369
CB046,LONG ISLAND BRIDGE,-60.407395,46.172758
CB048,LOWER BLACK BROOK BRIDGE,-60.014282,46.056331
CB049,MEADOWS ROAD BRIDGE,-60.3085,46.018938
CB050,MILL CREEK BRIDGE,-60.300129,46.283652
CB051,MARION BRIDGE,-60.21334,45.978618
CB052,MILL POND BRIDGE,-60.360601,46.306661
CB053,MIRA GUT,-59.968589,46.035908
CB055,MOUNTAIN BROOK BRIDGE,-60.353961,45.926321
CB056,MacCASKILL BROOK BRIDGE,-59.961916,46.151758
CB057,MacCUISH #1 BRIDGE,-60.566488,45.816258
CB058,MacINTOSH BRIDGE,-60.520231,45.965559
CB059,MacKINNON BRIDGE,-60.362656,46.240208
CB060,MacMULLIN BRIDGE,-60.034056,45.983822
CB062,MacPHERSON BRIDGE,-60.343337,46.129897
CB063,POND BRIDGE,-60.374687,46.022557
CB064,RIGHT OF WAY BRIDGE,-60.727442,45.929357
CB065,SALMON RIVER TRUSS,-60.322368,45.918486
CB066,SALMON RIVER (LOWER) BRIDGE,-60.302056,45.934197
CB068,SAND LAKE CULVERT,-59.933198,46.135924
CB070,SLUICE BRIDGE,-60.390516,46.016101
CB071,TROUT BROOK TRUSS,-60.154673,45.985667
CB072,UPPER MEADOWS CULVERT,-60.339164,46.005191
CB073,VICTORIA TRUSS,-60.287747,45.825747
CB074,WATSON'S CREEK BRIDGE,-60.278775,46.161718
CB075,WM MacDONALD BRIDGE,-60.530106,45.836425
CB076,LITTLE BRAS d'OR RR O/P ON 105,-60.292531,46.251689
CB077,NORTH SYDNEY 105 O/P ON 125,-60.263307,46.236604
CB078,NORTH SYDNEY CNR U/P ON 105,-60.250569,46.221915
CB079,LEITCHES CREEK EB,-60.311826,46.166255
CB079A,LEITCHES CREEK WB,-60.311398,46.166282
CB080,BALLS CREEK ON 125 EB,-60.309553,46.152114
CB081,125 O/P ON COXHEATH ROAD,-60.240699,46.110924
CB082,SYDNEY RIVER BRIDGE,-60.233843,46.107057
CB083,KINGS RD U/P ON 125 #1,-60.230589,46.105512
CB084,KINGS RD U/P ON 125 #2,-60.22655,46.105666
CB085,125 O/P ON GABARUS ROAD,-60.202298,46.10511
CB086,LOUISBOURG RD U/P ON 125,-60.168214,46.115213
CB087,105 O/P ON PLEASANT STREET,-60.247159,46.214668
CB089,COMMERCIAL STREET BRIDGE,-59.954201,46.193326
CB090,125 O/P ON JOHNSON ROAD,-60.27209,46.215772
CB091,125 O/P ON ROUTE 223,-60.312066,46.170162
CB092,BALLS CREEK ON 125 NB,-60.30922,46.152291
CB093,BALLS CREEK ON 305,-60.308879,46.152476
CB094,BALLS CREEK U/P ON 125 EB,-60.306533,46.146252
CB095,125 O/P ON SYDPORT ROAD,-60.262258,46.122878
CB096,BALLS CREEK U/P ON 125 WB,-60.306281,46.146389
CB097,ACONI BROOK #1 CULVERT,-60.386855,46.255525
CB098,SYDPORT KELTIC DR & CNR O/P,-60.256936,46.129861
CB099,GIBBONS #1 BRIDGE,-60.30972,45.946194
CB100,INTERVALE BRIDGE,-60.312421,45.936437
CB101,GIBBONS #2 BRIDGE,-60.306728,45.954171
CB102,GILLIS LAKE BRIDGE,-60.399754,46.055034
CB103,CRAWLEY CREEK BRIDGE,-60.288491,46.306511
CB104,MacKEIGAN CULVERT,-60.207692,45.967564
CB105,CATALONE RIVER #3 BRIDGE,-60.105697,45.985085
CB106,BIG RIDGE BRIDGE,-60.218882,45.954535
CB107,FRENCH ROAD BRIDGE,-60.237749,45.905922
CB108,CAMPBELL ROAD CULVERT,-60.297313,46.142332
CB109,GASPEREAUX BROOK BRIDGE,-60.532021,45.87453
CB110,ENON BRIDGE BRIDGE,-60.534222,45.815054
CB111,MUNRO BROOK BRIDGE,-60.551831,45.82455
CB113,JIM MacDONALD BROOK BRIDGE,-60.659495,45.836182
CB114,MacGILLIVARY BROOK BRIDGE,-60.554672,45.963798
CB115,KENNEDYS BRIDGE,-59.866414,45.958353
CB116,LITTLE LORRAINE BRIDGE,-59.861953,45.957936
CB117,MIRA RIVER BRIDGE,-60.293319,45.810891
CB118,ISLAND LAKE BROOK BRIDGE,-60.297411,45.80739
CB119,N.E. FRAMBOISE RIVER BRIDGE,-60.363084,45.764835
CB120,MORRISON BROOK #2  BRIDGE,-60.36454,45.76511
CB122,KILKENNY LAKE BROOK BRIDGE,-60.107663,46.215938
CB123,MacINTYRE BROOK BRIDGE,-60.569212,45.891823
CB124,MacNEILS BROOK BRIDGE,-60.638788,45.850055
CB125,CURRY BROOK BRIDGE,-60.343244,46.054782
CB126,DAN MORRISON BROOK BRIDGE,-60.361916,46.013319
CB127,TOMETARY CULVERT,-60.255644,46.059644
CB128,GRANTMYRE BROOK CULVERT,-60.312785,46.127701
CB129,DERBY POINT BRIDGE,-60.79459,45.953573
CB130,BLACK BROOK #1 CULVERT,-60.112831,46.068711
CB131,BLACK BROOK #2 CULVERT,-60.115673,46.067252
CB132,ACONI BROOK BRIDGE,-60.407988,46.242252
CB133,LIMESTONE BROOK #1 CULVERT,-60.297524,46.178293
CB134,LIMESTONE BROOK #2 BRIDGE,-60.296982,46.178777
CB136,HARE BROOK #1 BRIDGE,-60.689845,45.949099
CB137,HARE BROOK #2 BRIDGE,-60.691892,45.951111
CB138,DUTCH BROOK CULVERT,-60.203164,46.075845
CB139,CARIBOU MARSH BROOK BRIDGE,-60.232594,46.024771
CB140,MacSWEENS BRIDGE,-60.441407,46.036712
CB141,CARIBOU BRIDGE,-60.200662,46.050749
CB142,GILLIS FALLS BRIDGE,-60.392063,46.050533
CB143,MacADAMS LAKE CULVERT,-60.426003,46.030234
CB144,FRENCHVALE BROOK BRIDGE,-60.378938,46.108254
CB145,GUTHRO ROAD BRIDGE,-60.389694,46.103623
CB146,MacAULAYS BROOK BRIDGE,-60.41304,46.114896
CB147,WOODBINE BRIDGE,-60.303626,46.001198
CB148,MacCUISH #2 BRIDGE,-60.504871,45.814451
CB149,MIDDLE CAPE CULVERT,-60.614686,45.867302
CB150,MacDONALD BROOK BRIDGE,-60.585971,45.804439
CB151,CHRISTMAS BROOK BRIDGE,-60.617262,45.941759
CB152,REAR CHRISTMAS ISLAND BRIDGE,-60.705956,45.961665
CB153,NEW BARRA RAIL OVERPASS BRIDGE,-60.788632,45.959038
CB154,BARRA STRAIT BRIDGE,-60.799216,45.960361
CB155,BIG GLEN #2 BRIDGE,-60.453559,45.839484
CB156,BIG GLEN #1 BRIDGE,-60.458097,45.831508
CB157,STUARTS LAKE BRIDGE,-60.007042,45.943262
CB158,GERARDS BROOK BRIDGE,-60.000363,45.926061
CB159,BIG GLEN #3 BRIDGE,-60.42504,45.850323
CB160,BOISDALE CULVERT,-60.506511,46.097032
CB161,FRENCHVALE CULVERT,-60.414459,46.085327
CB162,PLEASANT ST. RR OVERPASS,-60.248476,46.213367
CB163,SHUNACADIE#1 CULVERT,-60.637466,46.027824
CB164,SHUNACADIE#2  CULVERT,-60.652687,46.019948
CB165,BIG BROOK CULVERT,-60.269794,46.127769
CB166,MacKINNON BROOK BRIDGE,-60.160099,46.008865
CB167,MAIN STREET LOUISBOURG BRIDGE,-59.97992,45.918133
CB168,MUGGAH CREEK BRIDGE,-60.188635,46.138987
CB169,RENWICK #2 BRIDGE,-59.961153,46.187543
CB170,WENTWORTH CREEK BRIDGE,-60.194928,46.132545
CB171,SMELT BROOK BRIDGE,-60.254981,46.203677
CB172,IRISH BROOK #2 BRIDGE,-60.092222,46.253116
CB173,GERRATT BROOK BRIDGE,-59.982938,45.922799
CB174,VICTORIA ROAD #1 BRIDGE,-60.226338,46.105474
CB175,VICTORIA ROAD #2 BRIDGE,-60.181598,46.151349
CB177,HILLDALE BRIDGE,-60.27493,45.965732
CB178,JOHN CAMPBELL BROOK  CULVERT,-60.664722,45.828455
CB179,ALEXANDRA STREET UNDERPASS(EXIT 7),-60.20185,46.105086
CB180,GEORGE ST OVERPASS Exit 8),-60.168135,46.115141
CB181,COW BAY RD UNDERPASS,-60.14605,46.140119
CB182,Grand MIRA NORTH,-60.317651,45.877749
CB185,Hardey Lake Culvert,-60.187966,45.870813
CB186,Grand Lake Road/125 Interchange,-60.145033,46.146892
COL002,BASS RIVER,-63.779738,45.414676
COL003,NELSON,-63.230327,45.26762
COL004,BUMPIS,-63.284215,45.263463
COL005,McCABE BROOK,-63.948017,45.396706
COL006,CAUSEWAY,-63.38542,45.378475
COL007,EAST RIVER,-64.029141,45.411754
COL008,ECONOMY RIVER,-63.89934,45.386186
COL009,FOLLY RIVER,-63.528793,45.398121
COL010,GREAT VILLAGE,-63.5983,45.415825
COL011,GEORGE GIBBONS,-63.336839,45.158342
COL012,C.N.R.  OVERPASS  W.B.,-63.307141,45.395429
COL013,ABOITEAU,-63.415745,45.383162
COL014,LITTLE BASS RIVER,-63.80728,45.399962
COL015,LOWER DEBERT,-63.510702,45.395385
COL016,LOWER FIVE ISLANDS,-64.082884,45.411859
COL017,LOWER PORTAPIQUE,-63.712072,45.406469
COL018,NORTH RIVER STRUCT. - W.B.,-63.27678,45.399806
COL019,LOCKHART,-63.278838,45.249469
COL020,TC 104 SALMON RIVER O/P W.B.,-63.075038,45.459163
COL021,STERRITT,-63.784285,45.410096
COL022,STEWIAKE OVERHEAD,-63.355807,45.135184
COL023,HINGLEY,-63.067085,45.473647
COL024,TRURO WINDSOR ROAD SB OVERPASS,-63.318951,45.367286
COL025,SALMON RIVER,-63.272931,45.368331
COL026,BAYHEAD,-63.373584,45.744194
COL027,BLOCKHOUSE,-63.326348,45.729464
COL028,CAMPBELL,-63.304177,45.718685
COL029,DEWARS RIVER,-63.401953,45.762574
COL030,LOCKERBY,-63.279727,45.703904
COL031,MILLARD,-63.3633,45.738286
COL032,ALEX HAYMAR,-63.228553,45.680998
COL033,BALFRON,-63.226684,45.672569
COL034,TC 104 SALMON RIVER O/P E.B.,-63.075011,45.458859
COL035,CAMERON,-63.229371,45.655501
COL036,CREEK #1,-63.280881,45.383435
COL037,EDMOND LYNDS,-63.23993,45.432249
COL038,RIVERSDALE RD  OVERPASS - E.B.,-63.081625,45.456283
COL039,STEVENS CROSS RD UNDERPASS,-63.106873,45.44472
COL040,BLACKMORE,-63.212684,45.495508
COL041,SABRA LYNDS,-63.215297,45.454356
COL042,PICTOU ROAD OVERPASS,-63.20266,45.399321
COL043,WILSON LYNDS,-63.228859,45.439802
COL045,ACADIA MINES,-63.613277,45.490768
COL046,ANDERSON JOHNSON,-62.925562,45.230767
COL047,LOWER TRURO ROAD SB OVERPASS,-63.31553,45.3623
COL048,ARCH HAYMAN,-63.227759,45.654462
COL049,TCH 102 & 104 INTERCHANGE  W B,-63.324824,45.390298
COL050,TRUNK 4 CONNECTOR,-63.030923,45.481374
COL051,BARNHILL,-63.396101,45.407624
COL052,BARRACHOIS,-63.267705,45.731347
COL053,BEAVER MEADOW,-63.900882,45.41351
COL054,BELL,-63.360766,45.638989
COL055,BELMONT,-63.383914,45.424452
COL056,BERT MILLER,-62.932459,45.271473
COL057,BERRY HILL,-62.940877,45.218499
COL058,BIG BROOK,-63.119557,45.647486
COL059,McCLURES BROOK  (NB),-63.317034,45.364306
COL060,BLACK BROOK,-63.218446,45.679759
COL061,BROWN,-63.031577,45.410136
COL062,RIVERSDALE RD O/P WB,-63.081829,45.456509
COL063,BURNETT,-63.373614,45.041511
COL064,BROOKSIDE ROAD O/P ON 104 (WB),-63.2106,45.398944
COL065,CHAPLIN,-63.113174,45.2352
COL066,CLIFFORD SILL,-63.076984,45.267219
COL067,MCCLURES BROOK (SB),-63.317176,45.364281
COL068,CHAPEL,-63.612078,45.475789
COL069,RUSSELLS MULTIPLATE,-63.067673,45.464668
COL070,COOPER,-63.311473,45.698459
COL071,CORBETT,-63.207269,45.219297
COL072,COX BROOK,-62.872515,45.271693
COL073,GEORGE JEFFERS,-63.010388,45.187923
COL074,COTTAM,-63.44278,45.482141
COL075,CREAMERY,-62.962038,45.230686
COL076,KEDDYS MULTIPLATE,-63.372726,45.384771
COL077,WHITES MULTIPLATE,-63.337477,45.386435
COL078,CROCKETT,-62.88792,45.31689
COL079,ROUTE 311 O/P ON 104 (WB),-63.270721,45.398541
COL080,SHAD CREEK,-64.065279,45.411246
COL081,CROWE'S MILLS #1,-63.704069,45.4276
COL082,DAVID BENTLY,-62.950639,45.253637
COL083,DEBERT STATION,-63.460381,45.438027
COL084,DONALDSON,-63.326293,45.703793
COL085,DEYARMOND,-62.956498,45.285793
COL086,DUNLOP,-63.050114,45.231228
COL087,AIRPORT,-63.476383,45.413817
COL088,EASTVILLE,-62.886075,45.278569
COL089,EAST BROOK,-63.199831,45.193982
COL090,EBEN FULTON,-62.99016,45.222826
COL091,EDWIN PUTMAN,-63.155338,45.227745
COL092,ALTON,-63.303102,45.189501
COL093,BROOKSIDE,-63.271066,45.382025
COL094,BRENTON,-63.208822,45.230893
COL095,FLEMMING,-63.609205,45.476321
COL096,FIELDS,-63.244053,45.24374
COL097,FRANK COX,-62.996308,45.21517
COL098,FRASER GEDDLES,-63.008618,45.192581
COL099,TAYLOR MILL,-63.23261,45.097006
COL100,FRED CHRISITE,-63.196146,45.380519
COL103,FRED BENTLEY,-62.926613,45.28144
COL104,FULTON BROOK,-62.910223,45.242419
COL105,GAYS RIVER,-63.358597,45.029887
COL106,BIG BROOK - Under 3 m (Not a bridge),-63.095254,45.176582
COL107,GEDDIE GRIST MILL,-63.362145,45.62053
COL108,GREEN CREEK,-63.408784,45.237773
COL109,GRAHAM,-62.939948,45.264512
COL110,GRIST MILL,-63.136237,45.580857
COL111,GULLY,-63.03313,45.219718
COL112,COX GULLY #2,-62.995957,45.204915
COL113,HENRY CHRISTIE,-63.174731,45.360191
COL114,RUTHERFORD,-62.89228,45.216023
COL115,HENDERSON,-63.24542,45.652196
COL116,HIGGINS,-63.364529,45.398327
COL117,HIGGINS (JOSH),-63.383437,45.444764
COL118,HUGH MCKAY,-63.25843,45.649614
COL119,ISSAC MCCABE,-63.107681,45.368039
COL120,JACK BROOK,-62.974219,45.300849
COL123,JOHN MILLER,-63.311416,45.633263
COL124,KENNEDY (SANDY),-63.345085,45.261208
COL126,LAYS,-62.916007,45.226191
COL127,MOOSE CREEK (BIG),-63.322998,45.366671
COL128,LIGHTBODY,-63.398727,45.429671
COL129,LOGAN BROOK,-62.853836,45.359533
COL130,LOMBARD CREEK,-63.324364,45.704525
COL131,LOWER GULCH,-63.621652,45.474634
COL132,LOWER ST ANDREWS,-63.388973,45.077939
COL133,LUTHER MCNUTT,-63.254184,45.451898
COL134,LYNDS (ALFRED),-63.219516,45.438285
COL136,MARSHALL,-63.369444,45.634297
COL137,MARTIN JOHNSON,-62.993854,45.324029
COL138,MATHESON,-63.36448,45.632447
COL139,MILE BROOK,-63.170778,45.398333
COL140,MILL,-63.387117,45.249392
COL141,MILL BROOK,-63.445384,45.630444
COL143,MILLER,-63.231599,45.090652
COL144,MILLER WHITE,-63.196904,45.647019
COL146,MCCALLUM,-63.13306,45.2942
COL147,MCELMON,-63.52642,45.442882
COL148,MCKAY (WILL),-63.114732,45.652548
COL149,MACINTOSH,-63.379338,45.698148
COL151,MCLEAN,-63.34043,45.067322
COL152,MCLEOD,-63.174212,45.69784
COL153,GEORGE HIGGINS,-63.005292,45.182867
COL154,RUSSELL THOMPSON,-63.278945,45.638294
COL156,PARK ST.,-63.281533,45.376837
COL157,PIERCE,-63.401361,45.409183
COL159,PLUM HOLE,-63.420363,45.310472
COL160,POLLOCKS,-63.297727,45.145611
COL161,POLSON,-63.211432,45.497017
COL162,PORTEAUS,-63.32115,45.659272
COL164,PUGH,-63.34933,45.676386
COL165,PURDY,-63.585417,45.467627
COL166,RED,-63.136357,45.225029
COL167,RIVERSDALE,-63.046719,45.42368
COL169,ROBIE PUTMAN,-63.165888,45.230464
COL170,ROUNDBANK - WILSON,-62.944671,45.227007
COL171,RUTHERFORD MILLS,-63.105931,45.236995
COL172,SAM COX,-62.881518,45.272891
COL173,SAM STAPLES,-63.394422,45.460677
COL174,SANDY CHISHOLM,-64.027017,45.41412
COL175,SNADY CLARK (MEADOW),-63.355965,45.249698
COL177,SOLEY,-63.481265,45.423332
COL179,ST ANDREWS,-63.291467,45.12449
COL180,SPENCER,-63.598154,45.438359
COL181,SPRINGSIDE,-62.909713,45.257398
COL182,STEVENS (BURPEE),-63.269335,45.209069
COL187,SWAN MITCHELL #1,-63.378495,45.666034
COL188,SYDNEY MINGO,-63.18509,45.696354
COL189,TAYLOR,-64.042278,45.415271
COL190,TROUT BROOK,-63.329005,45.703694
COL191,UPPER BASS RIVER,-63.771915,45.438474
COL192,VALLEY,-63.195967,45.383289
COL193,VERNON,-63.214929,45.369259
COL194,WALLACE BROOK,-63.296933,45.103939
COL195,WALLS,-63.080582,45.428497
COL196,WH SWAN #1,-63.371031,45.669424
COL201,MAY POLE,-63.385202,45.055794
COL202,COOKS MILL,-63.389756,45.031986
COL203,MURDOCK'S,-63.248539,45.693519
COL204,BAILLIE BROOK,-63.250474,45.640167
COL205,GEORGE SUTHERLAND,-63.219626,45.637617
COL206,GILBERT SUTHERLAND,-63.217755,45.625982
COL207,GULTCH,-63.235208,45.605784
COL208,KAVANAUGH MILLS,-63.256793,45.607189
COL209,BIZ BROOK,-63.243783,45.6951
COL210,REID,-63.217785,45.73995
COL213,DAVE VINCENT,-63.399899,45.629935
COL214,MITCHELL SWAN #2,-63.381895,45.668118
COL215,MCINTOSH MILL,-63.31996,45.615393
COL216,WILLIAM STERRITT,-63.76949,45.438438
COL218,AUSTIN CAMPBELL,-63.701027,45.416327
COL219,FIVE ISLANDS RIVER(BASS RIVER),-64.056049,45.412096
COL220,MOHNS OVERHEAD CROSSING,-63.531311,45.486441
COL221,WHARF ROAD - CREAMERY,-63.597063,45.409265
COL222,BASELINE RD BAILEY,-63.542926,45.484101
COL224,MCELMON ROAD U/P ON 104,-63.428867,45.397521
COL225,MASSTOWN U/P ON 104,-63.48435,45.395458
COL226,BELMONT ROAD U/P ON 104,-63.406337,45.392596
COL229,STEWART'S,-63.254443,45.425547
COL230,KEMPTOWN,-63.074236,45.462618
COL231,TUPPER BROOK (KENNEDY),-63.051294,45.17164
COL232,JOHN MCCULLOCH,-63.081059,45.163368
COL233,SOUTH BRANCH,-63.084053,45.16827
COL234,FISHER'S GULLY,-63.14725,45.219902
COL235,DOWNING BROOK,-63.254359,45.212666
COL236,SUTHER FISHER,-63.172175,45.207258
COL237,WEST SHORTT'S LAKE RD O/P NB,-63.313414,45.198628
COL238,WEST SHORTT'S LAKE RD O/P SB,-63.31377,45.198747
COL239,WATERING BROOK,-63.23486,45.177487
COL241,STEWIACKE RIVER,-63.350482,45.144337
COL242,FORT ELLIS ROAD  U/P,-63.356102,45.150025
COL243,STEWIACKE RIVER ON 102 NB,-63.359851,45.144487
COL244,STEWIACKE RIVER ON 102 SB,-63.360283,45.144509
COL245,STEWIACKE INTERCHANGE O/P NB,-63.363328,45.139717
COL246,STEWIACKE INTERCHANGE O/P SB,-63.363709,45.139801
COL247,BACK ROAD U/P ON 102,-63.39233,45.108607
COL248,CREAMERY,-63.270448,45.255827
COL249,HILDEN ROAD O/P NB,-63.303735,45.304246
COL250,HILDEN ROAD O/P ON 102 SB,-63.304118,45.304149
COL251,PLEASANT VALLEY RD RR O/P SB,-63.292381,45.250681
COL252,PLEASANT VALLEY RD RR O/P NB,-63.291976,45.250757
COL253,PICTOU ROAD OVERPASS,-63.203096,45.399083
COL254,EAST MOUNTAIN ROAD O/P ON 104,-63.162785,45.412861
COL255,BROOKSIDE ROAD U/P ON 104,-63.244263,45.393284
COL256,BROOKSIDE ROAD O/P ON 104 (EB),-63.210316,45.398722
COL257,EAST MOUNTAIN RD O/P(WB),-63.163074,45.413054
COL258,MACDONALDS BROOK,-63.178357,45.341687
COL259,JOE ROSS,-63.208316,45.397279
COL260,ONSLOW ROAD U/P ON 102,-63.321187,45.379778
COL261,SALMON RIVER (NB),-63.320244,45.374046
COL262,VIADUCT ON MARSH NEAR SALMON  (NB),-63.319711,45.370595
COL263,TRURO WINDSOR ROAD (NB) O/P,-63.318806,45.367305
COL264,LOWER TRURO ROAD (NB) O/P,-63.315286,45.362212
COL265,MCCLURES MILL U/P ON 102,-63.308006,45.351092
COL266,CROWES MILL ROAD U/P ON 10,-63.366745,45.383132
COL267,HIGHWAY 102 OP ON T.C.H. 104,-63.324678,45.39005
COL268,104 RR O/P E. B.  @ MILE 3.16,-63.306694,45.395254
COL269,WEST NORTH RIVER U/P ON 104,-63.285761,45.400549
COL270,ROUTE 311 O/P ON 104  E /B,-63.270941,45.398302
COL271,NORTH RIVER EAST BOUND,-63.276783,45.399512
COL272,ONSLOW,-63.285347,45.387181
COL273,SOLEY BROOK #2,-63.339921,45.36338
COL275,LEGGE BROOK,-63.15482,45.298874
COL276,FOUR MILE BROOK,-63.282615,45.629734
COL277,CARR'S INTERVALE,-63.71926,45.436366
COL278,WILLIS ROODE,-63.395721,45.451681
COL279,MILL POND,-63.54602,45.523581
COL300,MACKENZIE,-63.069824,45.481196
COL301,BARRY TOTTEN,-63.484089,45.482083
COL302,DAVID STAPLES,-63.393729,45.455592
COL303,BEAVERBROOK,-63.371742,45.425502
COL304,CLIFTON,-63.404913,45.344315
COL305,ISAAC SANDERSON,-63.420773,45.323581
COL306,LEWIS FISHER,-63.079536,45.266685
COL307,BURGESS,-63.026378,45.24728
COL309,COOK'S BROOK,-63.656002,45.470912
COL310,SUTHERLAND,-63.31864,45.6164
COL311,UPHAM,-63.365996,45.739894
COL312,FRED MUNROE,-63.444397,45.630634
COL313,CREIGHTON,-63.373061,45.615997
COL315,POND,-63.420656,45.584511
COL316,BIRCHTREE,-63.116154,45.625222
COL318,MAHONEY,-63.291773,45.591081
COL319,SUGAR LOAF,-63.293711,45.587702
COL320,HALFWAY,-63.2831,45.544461
COL321,CROOKED BROOK,-63.268042,45.51857
COL322,HOLMES,-63.39983,45.739031
COL323,LAKE BROOK,-63.439356,45.702891
COL324,SEMPLE CREEK,-63.194127,45.731662
COL325,EAST EARLTOWN,-63.165095,45.654099
COL326,WILLIAM FERGUSON,-63.198028,45.587164
COL327,HAL KIE,-63.138976,45.578871
COL328,LYNCHES,-63.14063,45.564405
COL329,JOHN MCNUTT,-63.207863,45.526528
COL330,CARRS BROOK,-63.932015,45.387385
COL331,SUTHER SPENCER,-63.682921,45.399983
COL332,HIGHLAND CULVERT,-63.594553,45.410408
COL333,DENSMORE BRANCH,-63.851484,45.436148
COL335,BEECHER CARR,-63.711636,45.428425
COL336,LASKEY,-63.835981,45.41827
COL337,ED SPENCER #2,-63.598585,45.440627
COL338,GEORGE MCCABE,-63.695863,45.424813
COL339,ED SPENCER #1,-63.599272,45.441295
COL340,CAMPBELL,-63.540666,45.483591
COL341,LOCKHART'S,-63.283117,45.252859
COL342,DANIEL'S,-63.287704,45.251774
COL344,JAS. ARCHIBALD,-63.344987,45.275946
COL345,GEORGE KENNEDY,-63.349413,45.273207
COL346,GEORGE ARCHIBALD,-63.346376,45.26949
COL347,JOHN BELL,-63.288829,45.272413
COL348,CARTER,-63.28302,45.262767
COL349,WHIDDEN,-63.277731,45.292487
COL350,ROBERT KENNEDY,-63.293824,45.289133
COL351,HILDEN,-63.293248,45.306862
COL352,ROBERT SMITH,-63.291479,45.317471
COL353,GREENOUGH,-63.289436,45.288815
COL354,DICKIE,-63.282757,45.259545
COL355,CLIFTON CHURCH,-63.406463,45.345706
COL356,COLE,-63.159614,45.34701
COL357,HINGLEY BRIDGE,-63.068512,45.47356
COL358,PROUDFOOT,-63.023425,45.501188
COL359,MATHESON CORNER,-63.161887,45.610452
COL360,CAMPBELL,-63.172083,45.583484
COL361,LANDSBERG,-63.083206,45.458326
COL363,CLIFFORD BROOK,-63.165112,45.411675
COL364,FARNHAM,-63.207215,45.399345
COL365,BAIRD BROOK,-63.384481,45.387604
COL366,ISHGONISH RIVER,-63.409513,45.393508
COL367,INTERVALE #1,-63.397251,45.409004
COL368,FLETCHER,-63.485886,45.43037
COL370,MCELMON MILL,-63.428371,45.39143
COL371,CAMPBELL,-63.485474,45.424733
COL372,GRAHAM CREEK,-63.407649,45.406435
COL373,PINE BROOK,-63.480727,45.440771
COL374,WALLACE CROW,-63.333768,45.43087
COL375,ED MCCALLUM,-63.29539,45.404376
COL376,IRVING,-63.137191,45.411782
COL377,FARNHAM MILL,-63.264339,45.383114
COL378,LAKE BROOK,-63.139135,45.142231
COL379,FULTON JOHNSON,-63.207063,45.184594
COL380,HAMLIN WRIGHT,-63.288825,45.149869
COL381,MCFADDEN,-63.275437,45.156032
COL382,LECK GOODWIN,-63.255624,45.167066
COL383,SLATEY,-63.309514,45.078676
COL384,ALFRED TEAS,-63.085174,45.170844
COL385,JOHN GOURLEY,-63.015663,45.245056
COL386,WILLIAM FRASER,-62.999868,45.237606
COL387,WILLIAM BEZANSON,-63.004955,45.18273
COL389,MATHEW DICKEY,-63.285828,45.120083
COL390,EDGAR BURGESS,-63.232369,45.106224
COL391,COMMO ROAD TUNNEL,-63.346065,45.162543
COL392,SHORTT'S LAKE TUNNEL,-63.303462,45.211742
COL393,WITHROW CULVERT,-63.384772,45.173635
COL394,CHARLES CREELMAN,-62.985362,45.212375
COL395,HOLMAN,-62.942695,45.224273
COL396,ROLAND BANK,-62.952588,45.234019
COL397,CARTER LAKE BROOK,-63.550014,45.525992
COL398,SLACK LAKE BROOK,-63.547935,45.522842
COL399,TUNNEL,-63.525965,45.447111
COL400,ANGUS MCCABE,-63.104494,45.353836
COL401,STEWIACKE,-63.097799,45.35069
COL403,ALEX MACKAY,-63.221605,45.651293
COL404,IRVING BELL,-63.369219,45.638087
COL405,BENTLEY BROOK,-62.910788,45.261915
COL406,VIADUET S/B,-63.319854,45.370569
COL407,SALMON RIVER S/B,-63.320379,45.374005
COL409,Alton,-63.303102,45.189501
COL411,CONNECTOR ROAD MULTIPLATE,-63.295847,45.353908
COL412,MILLBROOK CULVERT,-63.289729,45.329015
COL413,EAST PRINCE,-63.271072,45.364046
COL414,STEWIACKE ROAD CULVERT,-63.136673,45.144387
COL415,Dick Greene Culvert,-62.910788,45.261915
COL416,Masstown connector U/P,-63.49496,45.396342
COL417,Debert River NB,-63.50063,45.399604
COL418,Debert River SB,-63.500921,45.399408
COL419,Middle Road,-63.511641,45.404974
COL420,Gray Road U/P,-63.526251,45.408366
COL421,Folly River NB,-63.529538,45.409238
COL422,Folly River SB,-63.52976,45.409007
COL423,Glenholm Connector Exit 11,-63.532252,45.409715
COL424,Peppard Brook Culvert,-63.564889,45.431089
COL425,Station road Multiplate Exit 10,-63.584214,45.438524
COL426,Great Village River NB,-63.596685,45.445021
COL427,Great Village River SB,-63.59672,45.444741
COL428,Cumberland Brook Culvert,-63.64742,45.468121
COL429,Mines Bass River U/P,-63.64968,45.471587
COL430,Moose Brook Culvert,-63.628972,45.452621
COL440,Ruth Ann Murphy,-63.646524,45.468455
COL451,Rutherford Brook,-63.097105,45.342806
COL452,Treaty Connector U/P,-63.30322,45.329024
COL453,Fred Crowe,-63.406628,45.408338
COL455,Forbes,-63.355651,45.672873
COL460,Lower Harmony Road Culvert,-63.167123,45.346869
COL461,Beaver Brook Culvert,-63.418956,45.311531
COL462,McCormack Culvert,-63.422656,45.304435
COL463,Toll Booth TCH104 EB,-63.681251,45.499481
COL464,Toll Booth TCH104 WB,-63.67877,45.498577
COL465,Debert TCH104 WB,-63.450814,45.398315
COL466,Truro TCH104 EB Exit 15,-63.330724,45.388269
COL467,Truro Exit 14 HWY102 NB & SB,-63.319801,45.370219
CUM001,AMHERST,-64.225417,45.837471
CUM002,HALF RIVER CANAL,-64.347478,45.503756
CUM003,EAST BROOK,-64.248949,45.593374
CUM004,FURLONG,-64.25086,45.593688
CUM005,HALFWAY RIVER,-64.345089,45.526226
CUM007,HANSON,-64.141716,45.703379
CUM008,HENWOOD,-64.333652,45.534739
CUM009,MOOSE RIVER,-64.17004,45.421519
CUM010,LOWER MOOSE RIVER,-64.192686,45.419341
CUM011,NAPPAN MARSH,-64.195635,45.787126
CUM012,SPRINGHILL JUNCTION 0/P 0N 2,-64.106919,45.692684
CUM013,WEST BRANCH MOOSE RIVER,-64.193971,45.41984
CUM015,COOPER,-63.554709,45.631214
CUM016,FRED SMITH,-63.561944,45.598357
CUM017,JAMES BARCLEY,-63.563701,45.605812
CUM018,TEED,-63.558623,45.678098
CUM019,OXFORD,-63.864758,45.734945
CUM020,NEW SALTSPRINGS,-64.025162,45.658748
CUM021,HENRY SMITH,-63.91272,45.873437
CUM022,PALMERSTON,-63.661286,45.848059
CUM023,PORT PHILLIP,-63.740848,45.850955
CUM024,SHINIMICAS,-63.908696,45.872008
CUM025,TIDE MILL,-63.650818,45.848951
CUM027,WALLACE HARBOUR,-63.484522,45.817943
CUM028,WALLACE RIVER,-63.516386,45.813082
CUM029,ADVOCATE HARBOUR,-64.775727,45.332969
CUM030,EAST APPLE RIVER,-64.768968,45.472864
CUM031,BEECH ORCHARD,-64.791584,45.371134
CUM032,CLARKE,-64.792003,45.420289
CUM033,CORBIN,-64.801815,45.352938
CUM035,FOWLER,-64.426609,45.418625
CUM036,INDIAN CAMP,-64.789518,45.375378
CUM037,LITTLE SOUTH BRANCH,-64.799693,45.458734
CUM038,MILL CREEK,-64.783121,45.465625
CUM039,MCCARRON,-64.451251,45.684622
CUM041,RATCHFORD,-64.551436,45.415739
CUM042,RAMSHEAD,-64.464601,45.413199
CUM044,SAWDUST,-64.79238,45.362401
CUM045,SEAL BROOK,-64.525971,45.41495
CUM046,SMITH FLAT,-64.366288,45.422407
CUM047,SPICER'S CURVE,-64.78818,45.422749
CUM048,SPICER'S MILL,-64.703899,45.368252
CUM051,ATHOL,-64.216368,45.675838
CUM053,BEAVER DAM,-64.319284,45.424892
CUM054,BLACK RIVER,-63.867012,45.736522
CUM055,BROAD BROOK,-64.389995,45.519536
CUM059,BROWN'S CROSSING,-64.223556,45.687752
CUM060,BULMER,-63.8731,45.602561
CUM061,BURNS,-63.888486,45.902808
CUM062,BURNT LAND,-63.797545,45.682537
CUM063,CANAAN,-64.281987,45.543339
CUM064,CAREY,-64.517071,45.437174
CUM065,CLIFTON,-63.88485,45.695201
CUM066,COLLINGWOOD,-63.934615,45.607795
CUM067,CONN'S MILL,-63.703808,45.762298
CUM069,CHARLES BROWN,-64.252093,45.521068
CUM070,DAN MCALONEY,-64.278096,45.541499
CUM071,DAVISON,-63.928228,45.627601
CUM072,DEEP HOLLOW,-63.556141,45.769573
CUM073,DELANEY,-64.36151,45.428603
CUM074,DOCHERTY'S,-63.659484,45.813171
CUM075,DOYLE'S MILL,-64.066049,45.945465
CUM077,EAST FANNY'S ELBOW,-63.975977,45.69692
CUM078,EDDY,-64.217175,45.839818
CUM079,LOWER EEL CREEK,-63.758924,45.849529
CUM080,EEL CREEK,-63.778594,45.849549
CUM081,ELDERKIN,-64.2387,45.717332
CUM082,WALTER EMBREE,-63.558201,45.62561
CUM083,WATSON EMBREE,-63.520344,45.632546
CUM084,EUGENE ATKINSON,-64.269245,45.577028
CUM086,FALLS,-64.551027,45.43397
CUM087,FIVE ISLANDS,-64.141885,45.581801
CUM088,FOWLER   BROOK,-64.756642,45.432984
CUM090,GEORGE RUSHTON,-63.66342,45.603543
CUM091,GILROY,-64.100419,45.598
CUM093,GRIFFON BROOK,-63.803022,45.67635
CUM096,HASTINGS,-64.121598,45.82769
CUM097,JAMES HENDERSON,-63.614921,45.678827
CUM098,HOWARD,-63.565388,45.751006
CUM102,JACKSON,-63.839295,45.595194
CUM104,KERR'S #1,-64.521968,45.42875
CUM105,KERR'S,-64.247117,45.587417
CUM106,KERR'S MILL,-63.567768,45.772031
CUM107,KEINER,-64.002881,45.694646
CUM111,LITTLE RIVER   # 1,-63.722122,45.609343
CUM112,OXFORD LITTLE RIVER #1,-63.862921,45.738927
CUM113,LITTLE RIVER #2,-63.907006,45.77108
CUM114,LIGHTBODY,-63.559478,45.715692
CUM115,LOCKHART,-63.761298,45.720453
CUM116,LITTLE FORKS,-64.171492,45.695895
CUM117,MACCAN,-64.260373,45.724752
CUM118,MALAGASH STA,-63.412576,45.759355
CUM119,HALFWAY RIVER FLAT,-64.348585,45.49947
CUM121,MILL,-64.766433,45.327254
CUM123,MOUNTAIN ROAD,-63.896144,45.670712
CUM124,MUD CREEK,-63.885638,45.928718
CUM126,MYERS,-63.556123,45.663225
CUM127,MCLELLAN'S BROOK,-64.117274,45.886621
CUM130,LOWER NAPPAN ABOITEAU,-64.243132,45.772586
CUM131,NAPPAN RIVER,-64.166218,45.809397
CUM133,Larry Brander Bridge,-63.869307,45.934288
CUM137,POLLY'S,-63.908156,45.657134
CUM138,PUGSLEY'S MILL,-64.371854,45.635658
CUM140,THOMAS PURDY,-63.817081,45.596893
CUM141,REID'S BROOK,-64.80543,45.346706
CUM142,RALPHS,-63.850878,45.598197
CUM143,RIVER HEBERT,-64.373461,45.690381
CUM144,ROARING RIVER,-63.662524,45.602231
CUM145,ROSCOE,-64.290637,45.545388
CUM147,ROBINSON,-64.463173,45.421832
CUM150,SEAMAN LOWE,-64.194012,45.791979
CUM152,FRANK SKIDMORE,-64.257717,45.527627
CUM154,TR SMITH,-63.909704,45.867198
CUM155,SPICERS COVE,-64.891916,45.43314
CUM156,SOUTH BROOK,-64.164887,45.585688
CUM157,SOUTH BRANCH,-64.800835,45.459271
CUM158,SPENCE,-64.333122,45.449232
CUM159,STEWART'S MILL,-63.813891,45.573307
CUM160,WILLIAM SWAN,-63.503028,45.625439
CUM161,EDWARD TAYLOR,-64.392245,45.520372
CUM162,KENNETH TEED,-63.552859,45.669653
CUM163,TIDNISH,-64.04665,45.977055
CUM164,TREEN,-63.66968,45.64795
CUM166,VICKERY,-64.467493,45.425685
CUM167,WEST BROOK,-64.295428,45.552532
CUM169,BARREN BROOK,-64.740141,45.418082
CUM171,RUSH,-64.755996,45.325404
CUM175,GUILDERSON,-64.488801,45.434787
CUM177,HENRY JEFFERS,-64.333931,45.471665
CUM178,CHARLES DAVISON,-64.333365,45.506269
CUM181,SWAN CREEK,-64.256386,45.38901
CUM183,WHEATON,-64.110115,45.416561
CUM186,PORTER'S BROOK,-64.383261,45.650794
CUM187,ATKINSON BROOK,-64.368056,45.629416
CUM188,HARRISON,-64.263684,45.716573
CUM190,BROWN'S BROOK,-64.26486,45.525036
CUM191,COULTER,-63.462323,45.778736
CUM192,MCINTOSH,-63.46701,45.750822
CUM193,VALLEY ROAD CULVERT,-63.592033,45.619972
CUM194,PALMER,-63.625474,45.664935
CUM196,ROUTE 321 U/P,-63.880339,45.722538
CUM197,RIVER PHILLIP,-63.868829,45.721894
CUM199,GORDON CREEK,-63.747021,45.825425
CUM200,PLASTER CREEK,-63.771865,45.779627
CUM201,GRADY BROOK,-63.777533,45.769842
CUM202,GEORGE O SMITH,-63.914041,45.870216
CUM203,JOHN R CHAPPELL,-64.054699,45.956307
CUM204,NAPPAN RD U/P ON 104,-64.170541,45.798353
CUM205,GOULD ABOITEAU,-64.191955,45.785531
CUM206,FENWICK RD U/P ON 104,-64.124414,45.762714
CUM207,CNR O/P ON A404,-64.261461,45.846756
CUM210,OVERLAND,-64.239028,45.84025
CUM211,LAPLANCHE RIVER BRIDGE (WB),-64.238175,45.832731
CUM213,VICTORIA RD U/P ON 104,-64.235007,45.818718
CUM214,CNR/TK O/P ON 104 (EBL),-64.219525,45.806744
CUM215,SOUTH ALBION ST O/P ON 104,-64.200404,45.805996
CUM216,MACDONALD RD U/P ON 104,-64.188132,45.807193
CUM217,SPRINGHILL CONNECTOR U/P 142,-64.002433,45.692354
CUM218,CNR O/P,-64.018198,45.682716
CUM219,STILES,-64.097454,45.745013
CUM220,SIN,-64.04719,45.629585
CUM222,UPPER EAST BROOK,-64.143463,45.647525
CUM224,SOUTH BROOK,-64.179878,45.561765
CUM226,BLACK RIVER,-64.009388,45.686229
CUM227,GLENVILLE,-63.986152,45.698978
CUM228,THOMPSON RD U/P ON 104,-63.784744,45.69665
CUM229,BLACK RIVER CULV #2,-64.007445,45.691898
CUM232,MCALONEY,-64.336502,45.428113
CUM233,JUDSON YORKE,-64.489676,45.44445
CUM234,FULLERTON,-64.236478,45.427217
CUM238,DUNLOP CREEK,-64.251826,45.724874
CUM239,NATHANIEL SMITH,-63.871209,45.844308
CUM242,NEWVILLE,-64.331343,45.520048
CUM243,BROWN'S CREEK,-64.274801,45.761088
CUM244,CLAIRMONT,-63.959837,45.692738
CUM245,NEWCOMBE,-64.311033,45.414161
CUM249,CHARLES CASEY,-63.803653,45.854566
CUM250,AMHERST MARSH,-64.245671,45.848482
CUM251,LAPLANCHE (EASTBOUND),-64.238438,45.832798
CUM252,CNR O/P ON 104 (WESTBOUND),-64.21928,45.806953
CUM253,SOUTH ALBION ST O/P (WESTBOUND,-64.200514,45.806266
CUM254,NAPPAN RIVER ON TCH 104,-64.175895,45.801413
CUM255,LITTLE FORKS,-64.065405,45.732115
CUM256,GORDON CREEK,-64.248126,45.846011
CUM257,ST. GEORGE,-64.167526,45.743993
CUM258,CHIMNEY BROOK,-64.160017,45.716432
CUM260,BERRY,-64.279083,45.419325
CUM261,MCALEESE,-64.277481,45.421245
CUM262,FALLS,-64.255988,45.427925
CUM263,TAGGART CULVERT,-64.271881,45.426616
CUM265,CANNING,-64.462426,45.422041
CUM266,SWALLOW ROAD,-63.479968,45.626735
CUM267,EMBREE BROOK,-63.830291,45.742754
CUM268,LOGAN,-64.26527,45.785302
CUM269,WEBB,-63.664321,45.618921
CUM270,MOUNTAIN,-63.772817,45.59193
CUM271,SUGARLOAF,-63.819841,45.592024
CUM272,HENRY JOBE,-63.834051,45.59096
CUM273,SAM MOORING,-63.761032,45.722091
CUM274,THOMPSON CULVERT,-64.355771,45.545658
CUM275,DAVIDSON,-63.628787,45.798207
CUM276,HALIDAY,-63.724832,45.60776
CUM277,ALBERT HIGGINS,-63.726758,45.623834
CUM278,BURNT LAND,-63.721858,45.647181
CUM279,JAMES BARCLAY #1,-63.562683,45.604867
CUM280,SUTHERLANDS,-63.704022,45.539617
CUM281,ASH BROOK,-63.664277,45.617514
CUM282,BURT STEVENS,-63.570371,45.704689
CUM283,HUGH CHISHOLM,-63.568506,45.71586
CUM284,GRANT,-63.560757,45.74266
CUM285,LAWRENCE SMITH,-63.898362,45.8602
CUM286,SHERMAN,-63.939086,45.594831
CUM287,LITTLE RIVER,-64.433929,45.717689
CUM288,FIELDS,-64.575673,45.596416
CUM289,SAND RIVER,-64.6771,45.541066
CUM290,WOODS BROOK,-64.3729,45.667451
CUM291,THOMPSON,-63.71982,45.758608
CUM292,HEBB #2,-64.249664,45.56563
CUM293,CHURCH,-64.352463,45.501334
CUM294,MEADOW,-64.339203,45.503302
CUM295,RAILROAD,-64.254782,45.577309
CUM297,BROWN'S BAY,-63.447076,45.826022
CUM298,COLBURNE,-63.713093,45.796118
CUM299,CHESTNUT,-63.713601,45.790663
CUM300,MONTROSE #1,-63.617222,45.778999
CUM301,MONTROSE #2,-63.61572,45.776573
CUM303,WALLACE BAY ABOITEAU,-63.566349,45.828885
CUM304,CANFIELD,-63.660882,45.787131
CUM305,MELVIN LANGILLE,-63.271949,45.788311
CUM306,FOX HARBOUR,-63.487962,45.853397
CUM307,DAVID CREEK,-63.469753,45.85619
CUM308,KENNEDY,-63.449418,45.836287
CUM309,ROBERT SWAN,-63.566117,45.606085
CUM310,IRVING PATRIQUIN,-63.655668,45.653373
CUM311,SNAKE,-64.808125,45.346746
CUM312,MCCOLOUGH CREEK,-64.826756,45.465579
CUM313,ATKINSON,-64.783983,45.453088
CUM314,DYKE BOG,-64.710781,45.357116
CUM317,ABOITEAU,-64.324679,45.401233
CUM318,FRANCIS RYAN,-63.678485,45.72103
CUM319,HARRISON BROOK,-63.693029,45.75334
CUM320,FENTON,-63.948448,45.559919
CUM322,SILAS COLBURNE,-63.939676,45.590898
CUM323,CROWLEY,-63.632179,45.711374
CUM325,FOLLY LAKE,-63.549867,45.551858
CUM326,THOMAS DICKSON,-63.7919,45.804632
CUM327,HARRINGTON,-64.105354,45.417628
CUM328,KELLEY'S,-64.380262,45.639089
CUM329,LOWER GOLDEN BROOK,-63.292159,45.779949
CUM330,FARRELL,-64.329388,45.400495
CUM331,UPPER GOLDEN BROOK,-63.298007,45.779855
CUM332,MISSIGUASH,-64.263372,45.856226
CUM333,FORT LAWRENCE RD U/P ON 104,-64.255609,45.85301
CUM334,RIVER PHILIP (WESTBOUND),-63.868996,45.722171
CUM335,LEFT BRANCH,-64.074077,45.94418
CUM336,WEST ADVOCATE,-64.786752,45.339713
CUM337,OLD HALIFAX RD ACCESS BRIDGE,-63.996039,45.695775
CUM338,WESTBAY CULVERT,-64.413511,45.376469
CUM340,Hilltop Road Culvert,-63.696612,45.51118
CUM341,Portipque River Culvert,-63.710841,45.537311
CUM342,Westchester U/P,-63.710314,45.538371
CUM344,Westchester Mountain Multiplate,-63.711831,45.566008
CUM345,Wentworth Collingwood Culvert,-63.73437,45.604366
CUM346,Wentworth/Collingwood Exit 8,-63.735817,45.607405
CUM347,Beaver Tail Multiplate,-63.743485,45.656825
CUM348,Tillitis Brook Culvert,-63.743386,45.657407
CUM349,CN Structure WB,-63.742985,45.658781
CUM350,CN Structure EB,-63.743363,45.658838
CUM351,Critter Pass Multiplate,-63.743268,45.65961
CUM352,Burntland Trail Multiplate,-63.764666,45.683029
CUM353,Burntland Brook Culvert,-63.764869,45.683389
CUM354,Thompson Interchange U/P,-63.776199,45.694346
CUM355,Access Panel,-63.712138,45.53653
CUM356,O'Rooke Brook Culvert,-64.358552,45.715853
CUM357,HW2 Aulac NB EB OHS,-64.275835,45.867024
CUM358,HW2 NS NB Boarder EB OHS,-64.26969,45.859814
CUM359,Fort Lawrence TCH104 EB,-64.260978,45.855187
CUM360,Oxford TCH104 EB,-63.915241,45.717067
CUM361,McCully Brook,-64.853803,45.456187
CUM362,Green Bay Culvert,-63.995455,45.991278
CUM364,Amherst Scale Inbound,-64.250483,45.85014
CUM365,Barronsfield Culvert,-64.377897,45.689116
CUM366,ROBERTS BRIDGE,-64.184345,45.418145
CUM367,North Shore Road Culvert,-63.417045,45.799304
CUM368,Greenville Station,-63.6619,45.6526
CUM369,Oxford Trail Crossing,-63.880455,45.723635
DIG001,Bingay Bridge,-65.868106,44.542513
DIG003,Grosses Coques Bridge,-66.070381,44.379872
DIG004,Joggins Bridge,-65.743343,44.600923
DIG005,Journeay Bridge,-66.007758,44.405858
DIG006,Kenney Bridge,-65.950139,44.485431
DIG007,Meteghan Bridge,-66.141748,44.219043
DIG008,Salmon River (Lower) Bridge,-66.16175,44.053667
DIG009,Weymouth Bridge,-65.996215,44.409775
DIG010,Smith's Cove Bridge,-65.714666,44.610473
DIG011,Budds,-65.809967,44.610284
DIG012,Post Brook Bridge,-65.866768,44.607157
DIG013,Tiverton Bridge,-66.212818,44.392876
DIG014,Acacia Valley Bridge,-65.755172,44.58334
DIG015,Aymar Bridge,-65.751822,44.584501
DIG017,Big Mac #1 Bridge,-66.037001,44.16029
DIG018,Blackador Bridge,-66.095265,44.21705
DIG019,Branch Bridge,-65.82806,44.44902
DIG020,Chute Bridge,-65.740926,44.595407
DIG021,Cornell Bridge,-66.128485,44.181345
DIG022,Corning Bridge,-66.078485,44.046334
DIG023,Kinney Bridge,-65.951646,44.480944
DIG024,Creek (Freeport Bridge),-66.318284,44.275005
DIG027,Gates Bridge,-65.956498,44.408562
DIG029,Guy Mill Bridge,-66.042232,44.277103
DIG030,Henriette Bridge,-66.031564,44.300569
DIG031,Holmes Seely Bridge,-65.820954,44.589142
DIG032,Leo Deveau Bridge,-66.152789,44.055
DIG033,Lombard's Bridge,-65.936485,44.237278
DIG034,Mayflower Bridge,-66.100355,44.0825
DIG035,Melanson Mill Bridge,-66.119706,44.217318
DIG036,Morganville Bridge,-65.626065,44.533634
DIG037,Moses Mill Bridge,-66.059052,44.221998
DIG038,Muckler Bridge,-65.866236,44.470363
DIG039,Mullens Bridge,-65.921623,44.306668
DIG040,Mullins Bridge,-65.639932,44.574268000000004
DIG041,McBride Bridge,-65.844369,44.436667
DIG042,Meadows Brook Bridge,-66.124348,44.193299
DIG043,Post Brook Bridge,-65.870542,44.613933
DIG045,Raymond Mill Bridge,-66.089092,44.217235
DIG046,Rices Mil Bridge,-65.63653,44.568528
DIG047,Salmon River Lakes Bridge,-66.06505,44.175898
DIG048,Salmon River (Upper) Bridge,-66.139332,44.05862
DIG050,Sissiboo Bridge,-65.64212,44.571553
DIG052,Shingle Mill Bridge,-65.906572,44.231337
DIG053,Seely Marsh Bridge,-65.849156,44.576537
DIG054,Spectacle Bridge,-66.055487,44.282869
DIG055,Sam Saulnier Bridge,-66.106256,44.215648
DIG056,Syda Lake Bridge,-65.735681,44.545314
DIG058,Welsh Bridge,-65.946906,44.469575
DIG059,Morrison Bridge,-65.927538,44.495789
DIG060,Church Bridge,-65.908087,44.510838
DIG061,Young Brook Bridge,-65.848004,44.562642
DIG062,Bud Brook Bridge,-65.796823,44.589408
DIG063,Abbot Bridge,-65.826105,44.593581
DIG065,Creek #2,-65.651445,44.588522
DIG067,Taylor Bridge,-65.894172,44.433155
DIG069,Saulnier Bridge,-65.976671,44.414204
DIG070,Joe Theriault Bridge,-66.061301,44.386971
DIG071,Little Brook Bridge,-66.120574,44.303176
DIG072,Charles Boudreau Bridge,-66.134601,44.278443
DIG073,Shoe Factory Bridge,-66.133561,44.235636
DIG075,Louis Boudreau Bridge,-66.180165,44.111974
DIG076,Mavillette Bridge,-66.184813,44.100153
DIG077,Stillwater Bridge,-66.167654,44.067033
DIG078,VanTassel Bridge,-66.217995,44.383771
DIG079,Hassett Bridge,-65.937092,44.352471
DIG080,Harding Mullens Bridge,-65.905779,44.284278
DIG081,Corphan Bridge,-65.936896,44.220379
DIG082,Bullerwell Bridge,-65.926342,44.12621
DIG083,Sissiboo River Bridge,-66.002521,44.434714
DIG084,Smith Cove Trunk #1 Bridge on 101,-65.684171,44.615501
DIG085,Salmon River #2 Bridge,-66.144963,44.061108
DIG086,Fort Point Road U/P Bridge on 101,-66.000339,44.437357
DIG087,Riverside O/P Bridge on 101,-66.006477,44.430107
DIG088,Second Division Rd U/P Bridge on 101,-66.117732,44.182266
DIG089,Trunk #1 U/P Bridge on 101,-66.032332,44.401584
DIG090,Maxwellton Road O/P Bridge on 101,-66.120827,44.191655
DIG091,Saulnerville Road U/P Bridge on 101,-66.089314,44.247648
DIG092,Little Brook Road O/P Bridge on 101,-66.080707,44.283876
DIG093,Placide Comeau Bridge,-66.105217,44.21518
DIG094,Maza Road DAR O/P Bridge on 101,-66.102178,44.223346
DIG095,Meteghan River Bridge,-66.104998,44.216366
DIG096,St. Bernard Interchange Bridge,-66.028013,44.406358
DIG097,Bonnie Road U/P Bridge on 101,-66.139082,44.161106
DIG098,Patrice Road  O/P Bridge on 101,-66.079972,44.303211
DIG099,Fournier #2 Bridge,-65.994772,44.23196
DIG102,Tucker Mill Bridge,-65.771342,44.44972
DIG103,White Rock Bridge,-65.926758,44.402167
DIG104,Morrison Mill South Bridge,-65.999393,44.346096
DIG105,Graves Bridge,-65.972949,44.350215
DIG106,Provost Lake Bridge,-65.847493,44.360448
DIG107,Stoney Brook Bridge,-65.998321,44.324568
DIG108,Loon Lake Bridge,-65.986246,44.311279
DIG109,Porcupine Bridge,-65.980461,44.30165
DIG111,Half Penny Brook #2 Bridge,-65.850364,44.29769
DIG112,Half Penny Brook #1 Bridge,-65.831274,44.32049
DIG113,Firmain Lake Bridge,-65.928478,44.26084
DIG114,Payson Meadows Bridge,-65.888086,44.252667
DIG115,Lake Lemarchant Bridge,-65.569259,44.498558
DIG116,Bulls Bridge,-66.047966,44.373024
DIG117,Doucette Bridge,-66.059903,44.37402
DIG118,Wallace Dugas Bridge,-66.073357,44.373088
DIG119,Sam Comeau Bridge,-66.081737,44.364691
DIG121,Isadore Bridge,-66.085355,44.34157
DIG122,Belliveau #1Bridge,-66.090499,44.335155
DIG123,Dick Theriault North Bridge,-66.026568,44.352324
DIG125,Grand Lake Bridge,-66.032197,44.345661
DIG126,Morrison Mill North Bridge,-66.003084,44.345516
DIG127,Margo Bridge,-66.017252,44.326689
DIG129,Deremie Comeau Bridge,-66.082295,44.28459
DIG130,Fournier Bridge,-66.096244,44.277641
DIG132,Boudreau's Mill Bridge,-66.072147,44.284169
DIG133,Stoney Brook #2 Bridge,-66.018064,44.297896
DIG134,Campsite Brook Bridge,-66.00786,44.294697
DIG135,Twin Bill #1 Bridge,-66.037054,44.265236
DIG136,Twin Bill #2 Bridge,-66.037368,44.265208
DIG137,Mark Thibodeau Bridge,-66.004532,44.264752
DIG138,C. F. Comeau Bridge,-66.042853,44.245069
DIG139,Ben Comeau Bridge,-66.13153,44.211636
DIG141,Pierre Brook Bridge,-66.125619,44.177181
DIG142,Guillot Bridge,-66.159098,44.167366
DIG143,Joppa Bridge,-66.12345,44.167077
DIG144,Heron Lake #2 Bridge,-66.099672,44.172837
DIG146,Big Mack #2 Bridge,-66.029436,44.158357
DIG148,Deveau Bridge,-66.186124,44.123427
DIG149,Mardigras Road Multiplate Bridge,-66.150458,44.13166
DIG150,Gaspereau Lake Bridge,-66.115375,44.12583
DIG151,Mardigras Bridge,-66.064986,44.128259
DIG152,Cape St. Mary's Bridge,-66.19074,44.096429
DIG155,Black Brook Bridge,-66.073456,44.093692
DIG156,Robichaud Bridge,-66.043621,44.102646
DIG157,Davis Cove Road Multiplate Bridge,-66.151756,44.074316
DIG158,Church Bridge,-66.170185,44.06216
DIG159,Service Road Multiplate #1 Bridge,-66.145244,44.061598
DIG161,Dargie Cove Multiplate Bridge,-66.142307,44.040115
DIG162,Corning #2 Bridge,-66.095339,44.051009
DIG163,Post Brook (OLD) Bridge,-65.866903,44.607335
DIG164,Micmac Bridge,-65.818006,44.668729
DIG165,Daly Bridge,-65.788961,44.641446
DIG166,Marshalltown Bridge,-65.785087,44.591959
DIG168,Dunn Bridge,-65.72685,44.582622
DIG169,Alcorn Bridge,-65.723884,44.531488
DIG170,Meadow Bridge,-65.723689,44.531332
DIG171,Cherry Brook Bridge,-65.643404,44.571369
DIG172,Mullen Bridge,-65.636938,44.566509
DIG173,Purdy Bridge,-65.637575,44.566119
DIG174,Barnes #1 Bridge,-65.663977,44.536976
DIG176,Cape St. Mary's #2 Bridge,-66.194495,44.090897
DIG177,Sigogne Bridge,-66.057146,44.121659
DIG178,Eel Lake Bridge,-66.053351,44.225665
DIG179,Service Road Multiplate #3 Bridge,-66.012741,44.423246
DIG180,Joppa Road Multiplate Bridge,-66.126861,44.168637
DIG181,Pierre's Brook #2 Bridge,-66.123654,44.170731
DIG182,d'Entremont  Road Multiplate Bridge,-66.10964,44.204918
DIG183,Duffy Road Multiplate Bridge,-66.09244,44.237562
DIG184,P. F. Comeau Multiplate Bridge,-66.08269,44.271126
DIG185,Spectacle Lake Multiplate #1,-66.080519,44.28508
DIG186,Spectacle Lake Multiplate #2,-66.081399,44.285067
DIG187,Spectacle Lake Multiplate #3,-66.079941,44.285127
DIG188,Isadore Thibeau Multiplate Bridge,-66.06827,44.324107
DIG189,Grosses Coques Multiplate Bridge,-66.059839,44.338263
DIG190,Major Road Multiplate Bridge,-66.045404,44.35916
DIG191,C.P.R.R.  Crossing Multiplate Bridge,-66.043526,44.363961
DIG192,Dick Theriault Multiplate Bridge,-66.049321,44.374437
DIG193,Issac Lake Brook Multiplate Bridge,-66.045277,44.382915
DIG194,Service Road Multiplate #2 Bridge,-66.044751,44.383972
DIG195,Felix Mill #2 Bridge,-66.140611,44.091407
DIG196,Digby Overpass Bridge,-65.771212,44.597159
DIG198,Stillwater #2 Bridge,-66.157256,44.088432
DIG199,Belliveau River Bridge,-66.049364,44.374205
DIG200,Belliveau River #2 Bridge,-66.04995,44.374811
DIG201,Lac De Gruau Brook Bridge,-66.158507,44.167726
DIG203,Denton Bridge,-66.134627,44.444919
DIG205,Niger Bridge,-66.079019,44.335097
DIG206,Harrington Bridge,-66.070749,44.098109
DIG217,The Two Brothers Bridge,-66.148545,44.067432
DIG231,MacDonald Brook,-65.884346,44.449675
DIG232,Hectanooga Road Underpass on      Hwy # 101,-66.143793,44.057249
DIG233,Joggins Road Underpass on     Hwy # 101,-65.738084,44.601426
DIG238,Belliveau # 2,-66.088699,44.333601
DIG240,Clark Road Bridge,-65.671322,44.570154
DIG241,Duly Bridge,-65.837173,44.51948
DIG242,Wallace Branch,-65.794917,44.424001
DIG243,Murphy Mill,-65.8483,44.648387
DIG245,Irish Brook Bridge,-66.0216,44.224895
DIG247,Pam's Bridge,-66.111263,44.289368
DIG248,Marc Melanson Bridge,-66.118636,44.292685
DIG252,English Bridge,-66.062224,44.159341
DIG254,Little Brook Pedestrian  Bridge,-66.120667,44.303199
DIG255,Sears Mullens,-65.954693,44.27417
DIG256,Norman's Bridge,-65.929152,44.414626
DIG263,Old 217 Loop,-66.067127,44.496038
DIG264,Old Stone Arch,-65.714552,44.610399
DIG265,Haight Brook,-65.933627,44.57956
DIG266,Mill Brook #2 Bridge,-65.775725,44.538692
DIG269,Seely Brook Bridge Hwy101,-65.806877,44.587895
DIG270,Digby County Rail Trail Hwy 101 Underpass,-65.779154,44.597384
GUY001,GEGOGAN BROOK (CRUSHER RUN) BRIDGE,-61.998216,45.082514
GUY003,GASPEREAUX BROOK BRIDGE,-61.997749,45.031268
GUY004,LISCOMB RIVER BRIDGE,-62.097075,45.012828
GUY008,SHERBROOKE BRIDGE,-61.983949,45.143218
GUY009,SPANISH SHIP BAY BRIDGE,-62.030889,45.027973
GUY019,AMERICAN HARBOUR BRIDGE,-61.322635,45.255419
GUY020,ANDERSON BRIDGE,-61.611865,45.458769
GUY021,AULDS COVE BRIDGE,-61.435064,45.643845
GUY022,BRAYS BRIDGE,-61.724121,45.418284
GUY024,CANAL BRIDGE,-61.190644,45.242078
GUY026,CLAM HARBOUR CULVERT,-61.44267,45.423513
GUY029,DICKIE BROOK CULVERT,-61.504187,45.34797
GUY030,DOCTORS BROOK BRIDGE,-61.849185,45.263211
GUY034,PETER FERGUSON BRIDGE,-61.650982,45.488271
GUY035,FIFES BRIDGE,-61.611758,45.456558
GUY037,FLEETS BRIDGE,-62.175567,44.987357
GUY040,GILLIS PANEL BRIDGE,-61.460094,45.469301
GUY043,GODFREY CULVERT,-61.528804,45.359504
GUY046,HUGHS CULVERT,-61.65366,45.457022
GUY047,INDIAN RIVER BRIDGE,-61.770039,45.112578
GUY048,ISSAC'S HARBOUR BRIDGE,-61.673262,45.20403
GUY051,LAKE BRIDGE CULVERT,-61.548554,45.379951
GUY052,LARRY'S RIVER PANEL BRIDGE,-61.378669,45.228584
GUY053,OGDEN BRIDGE,-61.632943,45.345788
GUY054,LEWIS(SAMUEL),-61.779483,45.242893
GUY057,NEW HARBOUR BRIDGE,-61.459263,45.182085
GUY059,MASONS CROSS RD TRUSS,-61.890696,45.273802
GUY061,MEADOW BROOK BRIDGE,-61.30121,45.452839
GUY064,SOUTH WEST BROOK BRIDGE,-61.890159,45.266488
GUY068,MacPHERSONS BROOK BRIDGE,-61.737269,45.370242
GUY070,NEWTOWN BRIDGE,-62.146193,45.369236
GUY071,NORTH LAKE BROOK BRIDGE,-61.278138,45.265632
GUY074,PORT HILFORD BRIDGE,-61.845835,45.107851
GUY076,SALMON RIVER LAKE BRIDGE,-61.721399,45.35963
GUY086,SUTHERLAND BROOK BRIDGE,-61.856559,45.309819
GUY090,WALLACE,-62.393506,45.281889
GUY091,WALLACE LAKE BRIDGE,-62.060483,45.315768
GUY092,WALSH BRIDGE,-61.749769,45.37956
GUY094,WEST RIVER GLENELG PANEL BRIDGE,-62.073834,45.25594
GUY095,WHITMANS BRIDGE,-61.505754,45.44266
GUY096,WYLDES BRIDGE,-61.389956,45.609235
GUY097,OTTER BROOK BRIDGE,-62.210652,45.023469
GUY098,BEAR BROOK BRIDGE,-62.099547,44.999706
GUY100,GREGOGAN BROOK,-61.982083,45.07133
GUY101,RED HILL BRIDGE,-61.88026,45.138501
GUY102,TRIFORD BROOK BRIDGE,-61.817589,45.100133
GUY104,SMELT BROOK #1 BRIDGE,-61.839613,45.107044
GUY106,SCANTILLION BRIDGE,-61.960105,45.105085
GUY107,MacDONALD BRIDGE,-61.976068,45.125462
GUY108,SMELT BROOK #2 BRIDGE,-61.83956,45.107458
GUY110,INDIAN HARBOUR BRIDGE,-61.880386,45.134508
GUY111,NORTH WEST ARM BROOK BRIDGE,-62.003049,45.140737
GUY112,ARCHIBALD BROOK BRIDGE #1,-61.975917,45.175877
GUY113,WEST RIVER STILLWATER TRUSS,-61.97977,45.174097
GUY114,WHIDDENS BRIDGE,-61.98943,45.183182
GUY116,MCINTOSH LAKE BROOK BRIDGE,-62.02379,45.227024
GUY117,KELLYS BRIDGE,-62.324414,45.267419
GUY118,BARREN BROOK BRIDGE,-62.288048,45.277719
GUY119,SUTHERLANDS BRIDGE,-62.274161,45.273809
GUY120,WEST RIVER ST MARYS BRIDGE,-62.27367,45.274385
GUY121,MacDONALD MILL BROOK BRIDGE,-62.262619,45.261531
GUY122,CUMMINGER BRIDGE,-62.262019,45.272838
GUY123,FRASERS BRIDGE,-62.246424,45.27133
GUY124,INDIAN MAN BRIDGE,-62.221231,45.27167
GUY125,MAX SMITH BRIDGE,-62.195953,45.264783
GUY126,RACE BROOK BRIDGE,-62.177647,45.268792
GUY127,MacINTOSH BRIDGE #1,-62.119697,45.268264
GUY128,ERNEST HATTIE BRIDGE,-62.090335,45.260219
GUY129,KIRK'S BROOK BRIDGE,-62.081903,45.254302
GUY130,SILVERS FALLS(FORKS GLENELG) TRUSS,-62.063478,45.256075
GUY131,BLACK GULLY BRIDGE,-62.073116,45.264753
GUY132,ARCHIBALDS BROOK BRIDGE #2,-62.097462,45.271955
GUY133,NICK BROOK BRIDGE,-62.093548,45.327317
GUY134,FISHER ARCHIBALD BRIDGE,-62.118709,45.329215
GUY135,ANGUS MACLEAN THROUGH TRUSS,-62.108761,45.341061
GUY136,EAST RIVER NEWTOWN BRIDGE,-62.136125,45.363218
GUY137,JORDEN BRIDGE,-62.12645,45.357063
GUY138,MacKEENS BRIDGE,-62.055407,45.285332
GUY139,ASPEN (WEEKS) BRIDGE,-62.062617,45.299495
GUY140,GULLY BROOK BRIDGE,-62.055054,45.29197
GUY141,ANTHONY MacKEEN BRIDGE,-62.060003,45.300202
GUY142,SOUTH END BRIDGE,-62.059861,45.339494
GUY144,HATTIE BROOK BRIDGE,-62.059344,45.37232
GUY145,SOUTH LOCHABER # 1 BRIDGE,-62.042923,45.382272
GUY147,SOUTH LOCHABER #2 BRIDGE,-62.039327,45.384307
GUY149,STORMONT BRIDGE,-61.72623,45.221701
GUY150,HALLETT BROOK BRIDGE,-61.80002,45.248411
GUY151,WEST SIDE COUNTRY HARBOUR TRUSS,-61.835723,45.257675
GUY152,GUNNS BROOK BRIDGE,-61.874608,45.269771
GUY153,GEORGES BROOK CULVERT,-61.879443,45.274245
GUY155,GEORGES BROOK BRIDGE,-61.883472,45.278407
GUY156,DESBARRES BROOK BRIDGE,-61.905974,45.302176
GUY157,BORNEO BRIDGE,-61.91771,45.306273
GUY158,WELSH BRIDGE,-61.96071,45.337694
GUY159,OLSON LAKE BROOK BRIDGE,-61.93903,45.316074
GUY160,GIANTS LAKE BROOK BRIDGE,-61.91879,45.383624
GUY161,EIGHT ISLAND LAKE BROOK BRIDGE,-61.962867,45.364231
GUY162,EIGHT ISLAND LAKE BROOK CULVERT,-61.964072,45.365108
GUY163,JOE DAYS CULVERT,-61.975506,45.383991
GUY164,GULLY BROOK BRIDGE,-61.916136,45.379337
GUY165,ARGYLE BRIDGE,-61.930615,45.39211
GUY166,ISAACS HARBOUR NORTH BROOK BRIDGE,-61.674214,45.196505
GUY168,BEAVER DAM BRIDGE,-61.780236,45.3394
GUY169,SINCLAIR BRIDGE,-61.730006,45.355853
GUY170,SALMON RIVER (EAST ERINVILLE) BRIDGE,-61.747452,45.37911
GUY171,SHEA LAKE BROOK BRIDGE,-61.748109,45.401349
GUY172,PORTER RIVER CULVERT,-61.824601,45.388104
GUY173,MacISSACS BRIDGE,-61.836523,45.386832
GUY174,Narrow Lake Bridge,-61.844893,45.393563
GUY175,CROOKS COVE BROOK BRIDGE,-61.590494,45.150446
GUY176,WEST BROOK BRIDGE,-61.580232,45.160172
GUY177,EAST BROOK BRIDGE,-61.56873,45.16469
GUY178,CODDLES HARBOUR BRIDGE,-61.542526,45.166874
GUY179,BASIN BROOK BRIDGE,-61.533692,45.185213
GUY181,UPPER NEW HARBOUR BRIDGE,-61.514862,45.213013
GUY182,HENRY BROOK BRIDGE,-61.476349,45.194106
GUY183,EASTERN BROOK BRIDGE,-61.447154,45.179167
GUY184,GAMMON COVE BRIDGE,-61.386623,45.199921
GUY185,WOOD LAKE BROOK CULVERT,-61.382142,45.231305
GUY186,LITTLE RIVER CULVERT,-61.346141,45.244842
GUY187,COLE HARBOUR RIVER BRIDGE,-61.260989,45.265591
GUY188,MOLASSES HARBOUR BRIDGE,-61.211311,45.2617
GUY189,HARNISH BRIDGE,-61.057904,45.296912
GUY190,WALSH BROOK BRIDGE,-61.17506,45.295461
GUY191,HARBOUR RIVER CULVERT,-61.181091,45.325984
GUY192,CEMETARY BRIDGE,-61.24918,45.341819
GUY193,QUEENSPORT BRIDGE,-61.264708,45.338793
GUY195,PEAS BROOK CULVERT,-61.310041,45.35081
GUY196,HALFWAY COVE BRIDGE,-61.377593,45.344515
GUY197,SANDY COVE BROOK CULVERT,-61.438397,45.347069
GUY198,DELANEY BROOK CULVERT,-61.455236,45.348789
GUY199,LOWER SALMON RIVER BRIDGE,-61.472287,45.354042
GUY200,PIPE LINE OVERPASS #1,-61.502982,45.348987
GUY201,PIPELINE OVERPASS #2 BRIDGE,-61.494744,45.341347
GUY202,HORSE SHOE LAKE CULVERT,-61.510323,45.293582
GUY203,TITTLE THROUGH TRUSS,-61.015723,45.340421
GUY205,MILL POND CULVERT,-61.504004,45.382128
GUY206,SPANKS BRIDGE,-61.513935,45.351211
GUY207,JENKINS BRIDGE,-61.526147,45.349734
GUY208,HORTON BROOK CULVERT,-61.576521,45.352931
GUY209,ARCHIE KENNYS CULVERT,-61.597904,45.348379
GUY210,MacALLISTERS BROOK CULVERT,-61.615196,45.348651
GUY211,SHEAS BRIDGE,-61.578654,45.3648
GUY216,KENNEDY BRIDGE,-61.761814,45.387624
GUY217,MacDONALD LAKE BRIDGE,-61.722941,45.406101
GUY218,HARTS BRIDGE,-61.460444,45.439634
GUY219,MILL BROOK BRIDGE,-61.366924,45.443247
GUY220,CAREY BROOK BRIDGE,-61.347021,45.433211
GUY221,ST.FRANCIS HARBOUR BRIDGE,-61.311052,45.446905
GUY222,COTTAM BRIDGE,-61.262472,45.476898
GUY224,MORGAN BROOK BRIDGE,-61.506791,45.412962
GUY225,CRESINE BROOK CULVERT,-61.519244,45.434275
GUY226,MILFORD HAVEN BRIDGE,-61.518123,45.437073
GUY227,FRASER LAKE BROOK BRIDGE,-61.544228,45.449871
GUY228,DUNPHYS BRIDGE,-61.587421,45.453842
GUY229,FIRST BRIDGE,-61.611525,45.454919
GUY230,CONNOLLYS BRIDGE,-61.628047,45.456324
GUY232,AIKENS PONY TRUSS,-61.646037,45.458588
GUY233,JOS ANDERSON BRIDGE,-61.710666,45.458047
GUY235,MILL HILL BRIDGE,-61.725697,45.45621
GUY237,CHARLIE FERGUSON BRIDGE,-61.649193,45.468115
GUY238,BRANDY BRIDGE,-61.600348,45.46122
GUY239,BERNIE O'CONNOR BRIDGE,-61.586284,45.46232
GUY240,LEETS BRIDGE,-61.556194,45.460216
GUY241,BYRMER BRIDGE,-61.549979,45.459966
GUY242,SHEPHERD LAKE BROOK CULVERT,-61.552458,45.522418
GUY243,MEAGHERS BROOK # 1 CULVERT,-61.509319,45.463774
GUY245,NEDS LAKE BROOK BRIDGE,-61.488127,45.500096
GUY246,BROWNS BRIDGE,-61.4731,45.512158
GUY247,GRANTS BROOK CULVERT,-61.502198,45.455904
GUY248,MILL BRIDGE,-61.501747,45.449532
GUY249,MEAGHERS BROOK # 2 CULVERT,-61.49593,45.445399
GUY250,JIM COADYS BRIDGE,-61.463517,45.465817
GUY251,NANNS BRIDGE,-61.419144,45.484252
GUY252,TWIN BRIDGE #1,-61.413025,45.489566
GUY253,TWIN BRIDGE #2,-61.412617,45.489613
GUY257,MELFORD BROOK BRIDGE,-61.310707,45.5343
GUY258,EAST BROOK BRIDGE CULVERT,-61.380446,45.584038
GUY259,PIRATE HARBOUR BRIDGE,-61.384386,45.584324
GUY260,NO.3 (MURRAY BROOK) BRIDGE,-61.419547,45.617909
GUY261,NO.2 (MURRAY BROOK) BRIDGE,-61.422976,45.616127
GUY263,GRANT LAKE BROOK BRIDGE,-61.445931,45.615881
GUY264,MURRAY BROOK #4,-61.415829,45.617775
GUY268,SILVEY BROOK BRIDGE,-61.576384,45.54442
GUY270,WEST BRANCH BRIDGE,-62.634424,45.280705
GUY271,GORMANS BRIDGE,-62.585229,45.280835
GUY272,BLACK BROOK BRIDGE,-62.529823,45.285984
GUY273,CHISHOLM BROOK BRIDGE,-62.407778,45.277678
GUY274,JIM MacDONALD BRIDGE,-62.363254,45.272234
GUY275,MacINTOSH BRIDGE #2,-62.388641,45.287716
GUY276,MARTIN RODGERS BRIDGE,-61.714513,45.457363
GUY278,MILL CREEK,-61.434609,45.644623
GUY279,RAILROAD BRIDGE (MULGRAVE),-61.398719,45.612833
GUY281,MURRAY ST. (MULGRAVE),-61.398899,45.612752
GUY282,RAILROAD (MULGRAVE),-61.39995,45.611801
GUY283,FOUGERES BROOK BRIDGE,-61.497555,45.38783
GUY284,FLAVIN ROAD BRIDGE,-61.50178,45.451185
GUY285,CAMERONS BRIDGE,-62.1846,44.995738
GUY286,ARCHIBALDS MILL BROOK BRIDGE,-62.115405,45.341611
GUY287,ISAAC SMITH BRIDGE,-62.139617,45.258511
GUY288,MANSONS BRIDGE,-61.9802,45.143526
GUY289,SEARS BRIDGE,-61.982381,45.142796
GUY290,KITTY SINCLAIR BRIDGE,-61.983099,45.14269
GUY292,BACK COVE BROOK CULVERT,-62.138811,44.967533
GUY294,JORDANVILLE BRIDGE,-61.908654,45.147593
GUY295,INGERSOL CREEK BRIDGE,-61.502612,45.381599
GUY296,CANTOR LAKE BROOK BRIDGE,-61.527541,45.226925
GUY297,EDS BROOK BRIDGE,-61.7685,45.464285
GUY298,CUDDIHYS LAKE BRIDGE,-61.730743,45.443142
GUY301,QUINCES NO. 1 CULVERT,-61.712324,45.142762
GUY302,BRANCH BROOK BRIDGE,-61.471069,45.512718
GUY303,BROWNS BROOK BRIDGE,-61.473147,45.512147
GUY305,MURRAY LAKE BROOK CULVERT,-62.013168,45.381987
GUY307,BAKERS ROAD BRIDGE,-62.081214,44.973907
GUY308,SILVEY BROOK # 2 CULVERT,-61.572615,45.541876
GUY309,INDIAN RIVER BRIDGE,-61.768523,45.111975
GUY310,HAY MARSH CULVERT,-61.206074,45.347119
GUY312,BULL MOOSE BRIDGE,-62.228122,45.047039
GUY313,BELLS ST MARYS BRIDGE,-62.058696,45.243306
GUY314,ALEX POLSON BRIDGE,-61.977003,45.374135
GUY315,Pirate Harbour Culvert,-61.380347,45.584192
HAN001,AVON RIVER,-64.144618,44.991749
HAN002,BLACK BROOK,-63.86096,44.915802
HAN003,LOWER HALFWAY RIVER,-64.177837,45.063026
HAN004,MONTAGUE,-63.997126,44.959905
HAN005,ST CROIX VILLAGE,-64.032749,44.961895
HAN006,THUMB HILL,-64.025231,44.962156
HAN007,BARNEY'S BROOK,-63.46773,44.996105
HAN008,"ELMSDALE #2, (Elmsdale Legion Bridge)",-63.501361,44.970543
HAN009,SHUBENACADIE RIVER AT ENFIELD,-63.534377,44.931858
HAN010,"SHUBENACADIE, Trunk 2",-63.401869,45.089707
HAN011,LEBREAU,-64.147585,44.965227
HAN012,BASS CREEK,-64.132834,45.198616
HAN013,BIG RAINY,-64.068279,45.220055
HAN014,COCHRANE,-64.014716,45.014269
HAN015,CHEVERIE CROSSING,-64.16981,45.158959
HAN016,DEEP CREEK (No Longer on Bridge List),-64.154896,45.094935
HAN017,EAST NOEL RIVER,-63.703391,45.303908
HAN019,FIVE MILE RIVER,-63.470192,45.250711
HAN022,LOWER COGMAGUN,-64.11858,45.083108
HAN023,KENNETCOOK RIVER,-64.034033,45.032262
HAN024,MACK BROWN,-63.930856,45.2633
HAN027,MUNGO BROOK,-63.632208,45.313019
HAN028,NOEL VILLAGE,-63.740769,45.296036
HAN029,RINES CREEK,-63.395832,45.151381
HAN030,LOWER ST CROIX RIVER,-64.041041,44.987414
HAN031,STIRLING BROOK,-63.559651,45.311045
HAN032,TENNYCAPE,-63.873497,45.266773
HAN033,WALTON ARBORTEAU,-64.005355,45.227706
HAN034,WHALE CREEK,-63.997931,45.240098
HAN035,ABEL HARVEY,-64.100469,45.090213
HAN036,O'HEARN,-63.719652,44.944777
HAN037,ALLEN BROOK #2,-64.187981,44.992176
HAN038,ANTHONY,-63.924162,45.089739
HAN040,BENERIE,-63.789185,45.114212
HAN041,BLACKS,-63.532965,45.026799
HAN042,WEIR,-63.851725,45.025604
HAN044,BURNTCOAT (No longer on bridge list),-63.804318,45.295758
HAN045,CALDWELL (see Milford HFX045),-63.434181,45.040913
HAN046,CASTLE FREDRICK,-64.216464,44.947852
HAN047,CHAMBERS,-64.030361,44.996932
HAN048,CLARKS (Upper Kennetcook),-63.662253,45.199533
HAN049,COLLIER,-63.955881,44.952657
HAN051,DAVISONS OR STEPHENS,-63.899923,45.03703
HAN052,ELLERSHOUSE,-63.999129,44.952259
HAN053,INDIAN,-63.49484,44.961723
HAN056,GARDINERS,-63.523464,45.000689
HAN058,HALFWAY RIVER #1,-64.190461,45.042971
HAN059,HANNA BROOK,-63.652069,45.198458
HAN060,HARVEY,-63.974327,44.999419
HAN061,ISNORS,-63.571485,45.114713
HAN062,JOHN RIVES,-63.756089,45.148484
HAN064,LANGILLE,-63.510419,45.116847
HAN065,LATTIES BROOK,-63.557898,45.23902
HAN066,LITTLE MEANDER,-63.942015,45.003919
HAN067,LITTLE RIVER,-63.572055,45.041985
HAN068,LOCKHART,-63.937521,45.081999
HAN069,MANTUA,-64.038694,44.994351
HAN070,MANGANESE,-64.308218,44.927655
HAN071,MEANDER,-64.002234,44.993988
HAN072,MEHANS,-63.7975,45.069838
HAN073,MILLET (Falls Lake Bridge),-64.239999,44.83926
HAN075,MACDOUGALL #1,-63.793352,45.132481
HAN076,MACDOUGALL #2,-63.778993,45.138871
HAN077,MCHEFFEY,-64.139487,44.95394
HAN078,MCKAYS,-63.960468,45.012926
HAN079,MACPHEE BROOK,-63.461915,45.128216
HAN080,NINE MILE RIVER,-63.572079,45.0403
HAN081,ROBINSON BROOK,-63.666989,45.167141
HAN082,PARKERS,-63.925977,45.004191
HAN084,PANUKE,-64.086359,44.963423
HAN086,MILLER'S CORNER,-63.688092,45.190398
HAN087,HERBERT RIVER,-63.722876,44.95822
HAN088,RINES BROOK,-63.449615,45.097337
HAN089,ROCKS (No longer on bridge list),-64.026332,44.967674
HAN090,RINES CREEK,-63.410931,45.151103
HAN091,SANGSTERS,-64.199368,44.953207
HAN092,SCOTCH VILLAGE BRIDGE,-64.004904,45.063131
HAN093,SHAW (Allen Brook #1),-64.185208,44.976296
HAN094,SHIPYARD (Cheverie),-64.153412,45.172008
HAN095,SWEETS,-63.959895,45.034379
HAN096,TOM COD,-63.930319,45.09333
HAN097,UPPER COGAMGUN,-64.045271,45.104844
HAN098,KENNETCOOK,-63.722152,45.175721
HAN099,VAUGHAN,-63.934506,45.039548
HAN100,WALTON,-63.986382,45.221068
HAN101,BONDS,-63.807158,45.021311
HAN102,WEST SHUBENACADIE U/P off Hwy 102,-63.423771,45.062198
HAN103,"Wentworth Rd O/P, Highway 101 Eastbound",-64.11366,44.991125
HAN104,"MILFORD U/P Trunk 14 @ Hwy 102, Exit 9",-63.443129,45.055909
HAN105,"TRUNK 14 O/P, Highway 101 Eastbound",-64.098279,44.97361
HAN106,"ST CROIX RIVER, Highway 101, eastbound",-64.030536,44.967508
HAN107,"ST CROIX O/P, Highway 101 @ Exit 4 EB",-64.01835,44.962732
HAN108,SOUTH MAITLAND (Gosse Bridge),-63.454205,45.249925
HAN109A,"SHUBENACADIE RIVER, Highway 102SBL",-63.394503,45.107985
HAN109B,"SHUBENACADIE RIVER, Highway 102NBL",-63.394749,45.108231
HAN110,"NINE MILE RIVER O/P, Highway 102NB",-63.502038,44.98426
HAN111,"ROUTE 215 U/P, Highway 102",-63.413148,45.105419
HAN112,"NINE MILE RIVER O/P, Highway 102SB",-63.50224,44.984501
HAN113,"MOUNT UNIACKE R/R O/P, Highway 101EB",-63.882055,44.891045
HAN114,"NEWPORT STATION O/P, Highway 101 EB",-64.055024,44.967871
HAN115,Upper Water St. Railroad O/P,-64.136156,44.997803
HAN116A,"MILL VILLAGE ROAD O/P, Highway 102NB",-63.43569,45.087775
HAN116B,"MILL VILLAGE ROAD O/P, Highway 102SB",-63.436085,45.087682
HAN117,"HORNE SETTLEMENT U/P, Highway 102",-63.540561,44.947219
HAN118,"HALIFAX HANTS U/P, Highway 101 @ Exit 3",-63.804785,44.842834
HAN119,HALFWAY RIVER ROAD,-64.196549,45.056701
HAN120,"HALFWAY RIVER #2 @ Exit 8, Highway 101",-64.18249,45.04926
HAN121,"ELMSDALE ROAD O/P, Highway 102",-63.508152,44.977751
HAN122,"ELLERSHOUSE ROAD O/P, Highway 101",-64.003435,44.947306
HAN123,"BOG ROAD U/P, Highway 101",-64.189634,45.052912
HAN124,"BARNEY'S BROOK, Highway 102",-63.46815,45.022016
HAN125,"DAWSON RIVER, Highway 101",-63.958281,44.923185
HAN126,BIRCH BROOK,-63.829657,45.103064
HAN127,BURNS BROOK,-63.691629,45.191621
HAN128,MCINNIS GLEN BROOK,-63.847459,45.099708
HAN129,BROOK,-63.632452,45.080271
HAN130,"Windsor Railroad O/P, Highway 101",-64.119637,44.996797
HAN131,"Trunk 1 O/P, Highway 101 Westbound",-64.167349,45.008363
HAN132,"Falmouth Railroad O/P, Highway 101 Westbound",-64.163458,45.006448
HAN133,"Falmouth Connector Rd U/P, Highway 101",-64.155049,44.99967
HAN134,Falmouth Connector Railroad O/P,-64.156883,44.998505
HAN135,"Exit 6 U/P, Highway 101",-64.136017,44.998334
HAN135A,THUMB HILL CREEK,-63.986547,44.961848
HAN136,BROOKLYN DYKE,-64.021913,45.001844
HAN136A,LOWER BROOKLYN DYKE,-64.023026,45.001828
HAN138,BROOKLYN CREEK,-64.011217,45.006392
HAN139,LITTLE RIVER #2,-63.890905,45.054207
HAN140,LITTLE RIVER #1,-63.874817,45.060377
HAN141,LITTLE NINE MILE RIVER,-63.626163,45.078938
HAN142,MILL RACE BROOK,-63.496558,45.317621
HAN143,NOLANS BROOK,-63.631134,45.209054
HAN144,SHUBENACADIE O/P @ Trunk 2,-63.402091,45.088494
HAN146,MCLEOD BROOK,-63.769547,45.127765
HAN147,SACKVILLE RIVER #2,-63.79399,44.862584
HAN148,INDIAN BROOK #2,-63.500618,45.112471
HAN149,SACKVILLE RIVER #1,-63.79499,44.882969
HAN150,UNIACKE BROOK,-63.572046,44.982081
HAN151,O'TOOLE BROOK,-63.662584,45.154396
HAN155,HERBERT BROOK,-63.858338,45.014766
HAN156,LOWER HERBERT RIVER,-63.881709,45.012294
HAN158,WALKER,-63.910956,45.062627
HAN159,MCINNES BROOK,-63.815631,45.091569
HAN160,GLEN BROOK #2,-63.818537,45.090645
HAN161,MACPHEE BROOK #1,-63.460939,45.12514
HAN162,MACPHEE BROOK #2,-63.460833,45.125409
HAN163,NOEL LAKE (Lake Road),-63.742017,45.277075
HAN164,BARTLETTS BROOK,-63.754431,45.105517
HAN165,NORTH BRANCH @ 9 MILE RIVER (Not on bridge list),-63.5831,45.0249
HAN166,LITTLE NINE MILE RIVER #2,-63.61458,45.073217
HAN168,MEANDER RUN #2,-63.870748,44.967911
HAN169,MEANDER RUN #1,-63.880123,44.953731
HAN170,GRANT BROOK,-63.544008,45.068654
HAN171,CALDWELL,-63.592632,45.064299
HAN173,ALLEN BROOK #3,-64.196875,44.998694
HAN174,BLACK BROOK (Akins Creek),-64.179708,45.036222
HAN176,BASS BROOK,-64.087718,45.189662
HAN178,DEEP HOLLOW BROOK,-64.195656,44.999387
HAN179,WEIR BROOK,-63.938031,45.090244
HAN180,SMITH LAKE BROOK,-64.002976,45.064833
HAN182,ZWICKER LAKE,-64.235996,44.815599
HAN183,HUTCHINS BROOK,-64.025186,44.947087
HAN184,TUNNELL CROMBE ROAD,-63.432257,45.076524
HAN200,BURTONS BROOK,-63.57003,45.232647
HAN201,TURPLE ROAD,-63.611569,45.213053
HAN202,KING ROAD,-63.652659,45.200501
HAN203,McCULLOCH ROAD,-63.651171,45.197972
HAN204,BACK RIVER ROAD,-63.593794,45.026365
HAN205,MILFORD STATION Railway Overpass,-63.420145,45.063011
HAN206,ESS ROAD (Little Nine Mile River),-63.617631,45.085886
HAN207,BARR BROOK (Barr Settlement),-63.649636,45.138636
HAN208,MILL BROOK (Barr Settlement Road),-63.677036,45.12137
HAN209,McLEOD BROOK,-63.756435,45.124364
HAN210,CHEESE FACTORY CORNER,-63.654006,45.087206
HAN211,CAPTAIN McPHEE BROOK,-63.668899,45.08059
HAN212,SHORE,-63.448685,45.229289
HAN213,BROOKLYN HARDWARE,-64.012244,45.00586
HAN214,MILLVILLAGE MULTIPLATE,-63.43179,45.065681
HAN215,NEW ROSS ROAD,-64.23159,44.840785
HAN216,SMELTZER ROAD,-64.235326,44.81561
HAN217,HANTSPORT,-64.180633,45.06999
HAN219,BLACK BROOK BRIDGE,-63.588885,45.066031
HAN220,MILL POND (Carrigan Brook Headwater),-63.710453,45.048721
HAN221,NIX BROOK,-63.821057,45.004284
HAN222,NEWPORT CORNER,-63.540256,45.319894
HAN223,SALMON HOLE DAM,-64.035082,44.959118
HAN224,NORTH BROOK,-63.710249,45.046041
HAN225,"MILFORD MULTIPLATE, Highway 102",-63.431547,45.068534
HAN226,"MOUNT UNIACKE R/R O/P, Highway 101WB",-63.881342,44.890841
HAN227,TEN MILE BROOK CULVERT,-64.237492,44.797289
HAN228,"NORTH ACCESS ROAD sta. 0+240, Hwy 101",-63.947008,44.918564
HAN229,SOUTH ACCESS ROAD 101- #1 sta. 0+069,-63.997255,44.942092
HAN230,SOUTH ACCESS ROAD 101- #2 sta. 3+025,-63.968047,44.92583
HAN231,SOUTH ACCESS ROAD 101- #3 sta. 3+440,-63.963656,44.924297
HAN232,SOUTH ACCESS ROAD 101- #4 sta. 3+830,-63.958846,44.922682
HAN233,SOUTH ACCESS ROAD 101- #5 sta. 4+760,-63.948038,44.91792
HAN234,ART ETTINGER,-63.731794,45.170871
HAN235,"ST CROIX RIVER , Highway 101 WB",-64.030251,44.967743
HAN236,"NEWPORT STATION O/P, Highway 101, WB",-64.054887,44.968127
HAN237,"ST CROIX O/P, Highway 101 @ Exit 4, westbound",-64.017878,44.962799
HAN238,CLARKE BROOK,-63.717349,45.233023
HAN239,SHAKY LAKE BROOK,-63.709353,45.236319
HAN240,MOUNTAIN ROAD,-64.104835,44.956547
HAN241,TENNYCAPE WHARF ROAD,-63.875137,45.268003
HAN242,GREY MOUNTAIN ROAD (Town Road Ext.),-64.19858,45.005397
HAN243,BLACK BROOK CULVERT,-64.180038,45.050218
HAN244,"HALFWAY RIVER, Hwy 101, eastbound @ exit 8",-64.182797,45.04911
HAN245,Smeltzer Brook Culvert,-64.232995,44.818638
HAN247,Hogan Road Bridge,-64.223573,44.823846
HAN248,Alonza Wile Bridge,-64.26067,44.811767
HFX001,BERGMAN - BRUSHY HILL,-63.787944,44.834313
HFX007,HUBBARDS VILLAGE,-64.053172,44.643017
HFX008,LITTLE INDIAN RIVER NORTH,-63.905761,44.690395
HFX009,LITTLE INDIAN RIVER SOUTH,-63.908177,44.689977
HFX010,INGRAMPORT RIVER,-63.965605,44.673547
HFX012,NORTH EAST RIVER (Mill Lake Run),-63.889835,44.694515
HFX013,PUDDLE,-63.994197,44.653936
HFX014,EAST RIVER (SHEET HARBOUR),-62.515314,44.919258
HFX015,HALFWAY BROOK,-62.453618,44.903595
HFX016,LAKE ECHO,-63.384783,44.740206
HFX017,LITTLE RIVER (SHIP HARBOUR),-62.884878,44.815651
HFX018,"LITTLE SALMON RIVER, Highway 107",-63.460039,44.705421
HFX019,LOWER  QUODDY (Necum Teuch Harbour),-62.307305,44.917555
HFX020,MOOSE HEAD,-62.265211,44.942973
HFX021,MOSER RIVER,-62.253149,44.976429
HFX022,MUSQUODOBOIT HARBOUR,-63.140594,44.790679
HFX023,NAVY POOL,-63.012354,44.777817
HFX024,NEWCOMBE BROOK,-62.825984,44.803745
HFX025,OYSTER POND,-63.008674,44.77875
HFX026,WRIGHTS BROOK (Parker),-63.619449,44.706558
HFX027,PORTERS LAKE,-63.307343,44.738283
HFX028,WEST QUODDY,-62.348009,44.926254
HFX029,PARTRIDGE RIVER,-63.414844,44.722253
HFX030,ROCKY BROOK,-62.409787,44.903559
HFX031,SALMON RIVER,-62.383976,44.916594
HFX032,SALMON RIVER JEDDORE,-63.038824,44.77915
HFX033,SHIP HARBOUR,-62.8858,44.809218
HFX034,SALES-GAETZ BROOK,-63.222812,44.759346
HFX035,SMITH BROOK,-62.209405,44.969423
HFX036,TANGIER,-62.706928,44.805012
HFX037,TWIN (SPRY BAY BRIDGE),-62.619467,44.846799
HFX038,WEST RIVER,-62.545035,44.92784
HFX039,BEAVER DAM (no longer exists),-62.758947,45.019729
HFX040,BRUCE BROOK,-63.16328,45.042498
HFX041,DICKEY BROOK,-63.103627,45.068493
HFX042,PAINT BROOK (Elmsvale),-63.051635,45.092783
HFX043,KENT BROOK,-63.030606,45.102931
HFX044,LITTLE RIVER,-62.611111,44.952521
HFX045,MILFORD (Caldwell HN045),-63.434335,45.040921
HFX046,PARKER (UPPER MUSQUODOBOIT),-62.94909,45.136278
HFX047,ROCKY BROOK,-62.804829,45.044276
HFX048,ABUTMENT (Oyster Pond Bridge # 2),-63.05496,44.691549
HFX050,BEAVERBANK RIVER,-63.684367,44.853009
HFX051,BEAR BROOK,-63.025371,45.061129
HFX052,"BENERY, Oldham Road, Enfield",-63.535598,44.928507
HFX054,BRANCH (SOUTH GAYS RIVER BRIDGE),-63.387466,44.988905
HFX055,BLACK DUCK RUN,-63.868289,44.511447
HFX056,BROWN (Little River),-63.193741,44.980405
HFX057,BROWN,-63.218628,44.994616
HFX058,BROWN'S BRANCH (no longer exists),-63.0822,45.0449
HFX059,HIGGINS,-63.158928,45.028214
HFX060,BRUSHY MEADOW (Stillwater Brook),-63.215781,44.933018
HFX061,LAY LAKE (BYERS),-63.201847,44.917478
HFX062,BAYERS (MILL),-63.159595,44.798708
HFX063,CANAL (PORTERS LAKE),-63.287258,44.656072
HFX064,CANTERBURY(BELLEFONTAINE RD),-63.286975,44.705268
HFX065,CHARLIE WILLIE,-63.859323,44.515861
HFX067,COLLEGE,-62.799053,45.236635
HFX068,COOKS (BIG POND BROOK),-63.29208,45.016901
HFX070,CRANES BAYS,-63.462332,44.710281
HFX071,CRAWFORDS,-63.22035,44.871947
HFX072,CROOKS,-63.377607,44.691935
HFX073,DEALES,-63.384799,44.69511
HFX074,DILLMANS(SIBLEY'S),-63.243842,44.93379
HFX075,DOLLAR BROOK (MURPHY),-63.28624,44.944487
HFX077,FAR BROOK,-63.356,44.97819
HFX078,KIRBY (CARMON'S ISLAND),-62.45666,44.858789
HFX079,FIFTEEN MILE STREAM,-62.505344,45.056735
HFX081,EAST CHEZZETCOOK GAETZ BROOK,-63.235892,44.746493
HFX082,EREAUXE-WEST PETPESWICK RIVER,-63.156369,44.779934
HFX083,GRAND LAKE,-63.630944,44.49726
HFX084,GRANT (JOHN),-63.204044,44.972391
HFX085,GRANT (LEWIS),-63.267388,44.944436
HFX086,GULLY-STOREY BROOK BRIDGE,-63.225002,44.977928
HFX087,HAMILTON,-62.963431,45.124555
HFX088,HARVERY #1,-62.346682,44.92712
HFX089,HARVERY #2,-62.347438,44.927606
HFX091,HIGGINSVILLE CHURCH,-63.055636,45.058208
HFX093,HYDES,-63.474609,44.979247
HFX094,MILL BROOK (ISNOR'S),-63.447562,44.986251
HFX095,JENNINGS (EAST FRASER BROOK),-62.963109,45.090466
HFX097,DUTCH SETTLEMENT (KEYES),-63.466489,44.976669
HFX098,KILLAG BRIDGE,-62.618005,44.958573
HFX099,KILLAUGH MILL BROOK,-63.306195,44.96113
HFX100,KING,-63.62152,44.862014
HFX101,LAING,-63.535663,44.924656
HFX102,LAKE EGMONT NARROWS,-63.29396,44.991993
HFX103,LAWRENCETOWN,-63.358013,44.649805
HFX104,LAWRENCETOWN MARSH,-63.373925,44.647009
HFX105,LAYBOLT,-62.835901,44.787416
HFX108,LITTLE FIFTEEN MILE STREAM,-62.56577,45.173064
HFX109,LITTLE LAKE (Conrod Beach Road),-63.194821,44.700565
HFX110,LITTLE SALMON RIVER,-63.453013,44.682794
HFX111,LOGAN GULLY,-63.199038,45.044579
HFX112,LONG COVE,-63.653304,44.469317
HFX113,LOWER MILL (RIVER LAKE BRIDGE #1),-62.739936,44.916069
HFX114,LOWER MILL RUN (RIVER LAKE BRIDGE #2),-62.737633,44.916587
HFX115,LOWER PROSPECT,-63.726783,44.45148
HFX116,LUMS BROOK (no longer on bridge list),-62.874061,44.806622
HFX118,MALAGASH (BOUTILIER'S ISLAND),-62.538458,44.845428
HFX119,MATHESON (DECKMAN ROAD BRIDGE),-62.943746,45.121273
HFX120,MILL BROOK,-62.26237,44.98305
HFX121,MILLER,-63.584496,44.826067
HFX122,MOOSE RIVER,-62.945299,44.987832
HFX123,MURCHYVILLE,-63.134198,44.994957
HFX126,NEWMAN,-63.318586,45.018672
HFX127,OGILVIE BROOK,-63.232866,44.945095
HFX128,OYSTER POND,-63.062664,44.705117
HFX129,PADDY'S HEAD ROAD,-63.948076,44.525854
HFX130,PENNANT RIVER,-63.628476,44.475877
HFX131,PEGGY'S COVE SOI,-63.907069,44.496649
HFX134,PRAIRIE,-63.170577,45.015324
HFX135,PURCELL BROOK,-62.836116,45.141889
HFX136,REDS,-63.224452,44.97755
HFX137,REIDS (ELMSVALE BROOK),-63.064947,45.084282
HFX138,ROCKY RUN/L PORTERS LAKE,-63.314126,44.643824
HFX141,SAMBRO BASIN,-63.597923,44.483734
HFX143,SCOTT'S BRANCH,-63.855855,44.531556
HFX144,SCOTT'S RIVER,-63.158003,44.992296
HFX145,SEDGIWICH,-63.141133,45.04171
HFX146,SHAD BAY,-63.790801,44.536097
HFX147,SLAUNWHITE,-63.888146,44.68359
HFX148,SNOW'S ISLAND,-62.316716,44.909664
HFX149,SMITH'S BROOK #2,-62.208065,44.962453
HFX150,SOBER ISLAND,-62.47165,44.855529
HFX152,STREATCH'S,-63.232495,44.966928
HFX153,TERRENCE BAY,-63.737426,44.506949
HFX154,TRICKWAY,-62.980191,44.973196
HFX156,WHITES LAKE BROOK,-63.76214,44.527848
HFX157,WILSON'S FALLS,-62.285889,45.021376
HFX158,WINTERS (no longer exists),-62.558409,44.862446
HFX159,WOODENS RIVER,-63.918057,44.593873
HFX160,WRIGHT (Camptown Road),-63.868422,44.75658
HFX161,"INGRAM RIVER, Highway 103",-63.963355,44.688241
HFX162,BOUTILIER'S POINT,-63.942187,44.65999
HFX163,"CRANBERRY LAKE TRAIL O/P, Highway 103",-63.768672,44.664963
HFX164,DAUPHINEE'S BROOK,-63.871245,44.685898
HFX165,MILL LAKE BRIDGE,-63.89568,44.710076
HFX166,N.S.P.C. PENSTOCK,-63.891866,44.692002
HFX167A,"SACKVILLE RIVER, Highway 101 westbound",-63.788355,44.827984
HFX167B,"SACKVILLE RIVER, Highway 101 eastbound",-63.788727,44.827879
HFX168,"BEAVERBANK, Highway 101 O/P",-63.701065,44.767002
HFX170,"SHELDRAKE LAKE U/P, Highway 103",-63.786361,44.673291
HFX172,"SACKVILLE RIVER OVERPASS, Highway 102",-63.65921,44.741852
HFX174,PORTLAND STREET U/P @ Highway 111,-63.536053,44.670597
HFX175,GAETZ BROOK (Rogers Brook),-63.209113,44.772452
HFX176,"LAKE ECHO TWIN #2, Highway 107",-63.379799,44.716545
HFX177,"LAKE ECHO TWIN #1, Highway 107",-63.384279,44.715387
HFX178,"PARTRIDGE RIVER, Highway 107",-63.39889,44.711869
HFX179,MCCAFFREY,-63.074465000000004,45.085235
HFX180,AUSER BROOK,-63.141387,45.046545
HFX181,HALIBUT BAY,-63.557589,44.550013
HFX182,KETCH HARBOUR BAY,-63.550753,44.492832
HFX183,GLEASON BROOK,-62.909809,45.157733
HFX184,"LITTLE WEST RIVER,Trunk 7",-62.559496,44.90127
HFX185,"BEECHVILLE CNR O/P, Highway 103",-63.658664,44.639399
HFX186,"NORTHWEST ARM DRIVE, Trunk 3 O/P",-63.638228,44.636842
HFX190,"HAMMONDS PLAINS ROAD, Highway 102 O/P",-63.689962,44.723355
HFX191,"KEARNEY LAKE ROAD, Highway 102 O/P",-63.677497,44.684958
HFX193,ECUM SECUM,-62.166373,44.977333
HFX194,"BENNERY BROOK Bridge, Highway 102 Southbound",-63.537985,44.920954
HFX195,"BENNERY BROOK Bridge, Highway 102 Northbound",-63.537622,44.921046
HFX196,HALIFAX INTERNATIONAL AIRPORT 102 U/P,-63.531983,44.877839
HFX197,"PORTO BELLO, Highway 118 O/P SB",-63.560601,44.74341
HFX198,"PORTO BELLO, Highway 118 O/P NB",-63.560262,44.743199
HFX199,"LAKE MICMAC, Highway 111",-63.550784,44.684141
HFX200,"MILLER LAKE CAUSEWAY, Highway 102 NB",-63.600393,44.808393
HFX201,"MILLER LAKE, Highway 102 U/P",-63.601886,44.806843
HFX202,"ROBINSON BROOK, Route 207",-63.425853,44.686321
HFX203,"MACCULLOCH SUB O/P, Highway 111",-63.554572,44.686317
HFX204,MAGAZINE ENTRANCE O/P (Bedford),-63.629985,44.713699
HFX205,"MILLER LAKE Interchange, Highway 118 O/P NB",-63.600036,44.80366
HFX206,"MILLER LAKE Interchange, Highway 118 O/P SB",-63.600305,44.803528
HFX207,"LAKEVIEW ROAD O/P, Highway 102 NB",-63.629396,44.772727
HFX208,"WAVERLY R/R O/P, Highway 102 NB",-63.617509,44.783735
HFX209,"LAKEVIEW R/R O/P, Highway 102 NB",-63.627937,44.773469
HFX210,"COBEQUID ROAD O/P, Highway 102 NB",-63.61764,44.783
HFX211,"LAKE THOMAS, Highway 102",-63.609252,44.804049
HFX212,"KELLY LAKE ACCESS ROAD, Highway 102",-63.605394,44.805659
HFX214,"FAIRVIEW O/P, Highway 102 @ NW ARM DR.",-63.64563,44.64575
HFX215,Highway 102 / 103 Interchange,-63.655018,44.643695
HFX216,LEWIS LAKE,-63.775024,44.820077
HFX217,BENVIE BROOK,-63.007625,45.113439
HFX218,DARTMOUTH PEDESTRIAN CROSSING,-63.542136,44.679988
HFX219,Hwy 102 O/P @ R/R & JOE HOWE DRIVE,-63.630616,44.651609
HFX220,BI HI 102 NB O/P @ BAYERS ROAD,-63.627491,44.652636
